{"type":"FeatureCollection", "features":[{"type":"Feature", "geometry":{"type":"Point","coordinates":[109.05381295181827,34.336969737132684]}, "properties":{"typecode":"120302","wgs84_lat":"34.336969737132684","address":"香湖湾五路与世博大道交叉口西北约200米","adname":"灞桥区","wgs84_lon":"109.05381295181827","pname":"陕西省","cityname":"西安市","gcj02_lat":"34.335718","name":"世园安置房","gcj02_lon":"109.058915","type":"商务住宅;住宅区;住宅小区"}}, {"type":"Feature", "geometry":{"type":"Point","coordinates":[109.05973080262777,34.334229517825484]}, "properties":{"typecode":"120302","wgs84_lat":"34.334229517825484","address":"世博大道与香湖湾二路(安定路)交叉口东侧50米","adname":"灞桥区","wgs84_lon":"109.05973080262777","pname":"陕西省","cityname":"西安市","gcj02_lat":"34.332986","name":"中南樾府","gcj02_lon":"109.064848","type":"商务住宅;住宅区;住宅小区"}}, {"type":"Feature", "geometry":{"type":"Point","coordinates":[109.05712616593675,34.336452466330584]}, "properties":{"typecode":"120302","wgs84_lat":"34.336452466330584","address":"香湖湾二路与世博大道交叉口北220米","adname":"灞桥区","wgs84_lon":"109.05712616593675","pname":"陕西省","cityname":"西安市","gcj02_lat":"34.335206","name":"世园·林语","gcj02_lon":"109.062237","type":"商务住宅;住宅区;住宅小区"}}, {"type":"Feature", "geometry":{"type":"Point","coordinates":[109.05662457129522,34.33526484722311]}, "properties":{"typecode":"120302","wgs84_lat":"34.33526484722311","address":"香胡湾五路香胡湾社区","adname":"灞桥区","wgs84_lon":"109.05662457129522","pname":"陕西省","cityname":"西安市","gcj02_lat":"34.334017","name":"香胡湾社区一期","gcj02_lon":"109.061734","type":"商务住宅;住宅区;住宅小区"}}, {"type":"Feature", "geometry":{"type":"Point","coordinates":[109.0588785240225,34.33866365625078]}, "properties":{"typecode":"120302","wgs84_lat":"34.33866365625078","address":"世博园19路附近碧桂园香湖湾1号","adname":"灞桥区","wgs84_lon":"109.0588785240225","pname":"陕西省","cityname":"西安市","gcj02_lat":"34.337421","name":"香湖湾壹号","gcj02_lon":"109.063994","type":"商务住宅;住宅区;住宅小区"}}, {"type":"Feature", "geometry":{"type":"Point","coordinates":[109.05801532521758,34.34292490331838]}, "properties":{"typecode":"120302","wgs84_lat":"34.34292490331838","address":"210县道与228乡道交叉口北300米","adname":"灞桥区","wgs84_lon":"109.05801532521758","pname":"陕西省","cityname":"西安市","gcj02_lat":"34.341683","name":"中建二局碧桂园·香湖湾1号项目","gcj02_lon":"109.063129","type":"商务住宅;住宅区;住宅小区"}}, {"type":"Feature", "geometry":{"type":"Point","coordinates":[109.04440149825723,34.34145659592665]}, "properties":{"typecode":"120302","wgs84_lat":"34.34145659592665","address":"浐灞生态区振业泊岸1号楼3单元30118商铺","adname":"灞桥区","wgs84_lon":"109.04440149825723","pname":"陕西省","cityname":"西安市","gcj02_lat":"34.340189","name":"德佑振业泊岸泰馨居","gcj02_lon":"109.049476","type":"商务住宅;住宅区;住宅小区"}}, {"type":"Feature", "geometry":{"type":"Point","coordinates":[109.04490674198966,34.343235668501855]}, "properties":{"typecode":"120302","wgs84_lat":"34.343235668501855","address":"灞桥街道欧亚大道与世博大道交汇处十字交汇处向东500米","adname":"灞桥区","wgs84_lon":"109.04490674198966","pname":"陕西省","cityname":"西安市","gcj02_lat":"34.341970","name":"紫薇·花园洲","gcj02_lon":"109.049983","type":"商务住宅;住宅区;住宅小区"}}, {"type":"Feature", "geometry":{"type":"Point","coordinates":[109.04865848948677,34.3399137685938]}, "properties":{"typecode":"120302","wgs84_lat":"34.3399137685938","address":"世博中路与黄邓路交叉口南","adname":"灞桥区","wgs84_lon":"109.04865848948677","pname":"陕西省","cityname":"西安市","gcj02_lat":"34.338654","name":"阅江府","gcj02_lon":"109.053746","type":"商务住宅;住宅区;住宅小区"}}, {"type":"Feature", "geometry":{"type":"Point","coordinates":[109.048687584373,34.33781873246254]}, "properties":{"typecode":"120302","wgs84_lat":"34.33781873246254","address":"世博大道北200米","adname":"灞桥区","wgs84_lon":"109.048687584373","pname":"陕西省","cityname":"西安市","gcj02_lat":"34.336558","name":"黄邓社区","gcj02_lon":"109.053775","type":"商务住宅;住宅区;住宅小区"}}, {"type":"Feature", "geometry":{"type":"Point","coordinates":[109.04491400337865,34.339956261309226]}, "properties":{"typecode":"120302","wgs84_lat":"34.339956261309226","address":"世博大道与黄邓路交汇处","adname":"灞桥区","wgs84_lon":"109.04491400337865","pname":"陕西省","cityname":"西安市","gcj02_lat":"34.338689","name":"振业泊岸","gcj02_lon":"109.049990","type":"商务住宅;住宅区;住宅小区"}}, {"type":"Feature", "geometry":{"type":"Point","coordinates":[109.04599108669261,34.334644623136356]}, "properties":{"typecode":"120302","wgs84_lat":"34.334644623136356","address":"会展二路与会兴路交叉口东240米","adname":"灞桥区","wgs84_lon":"109.04599108669261","pname":"陕西省","cityname":"西安市","gcj02_lat":"34.333377","name":"浐灞金融小区","gcj02_lon":"109.051070","type":"商务住宅;住宅区;住宅小区"}}, {"type":"Feature", "geometry":{"type":"Point","coordinates":[109.0636722264209,34.326378721232544]}, "properties":{"typecode":"120302","wgs84_lat":"34.326378721232544","address":"世博大道与后堡路交叉口东南320米","adname":"灞桥区","wgs84_lon":"109.0636722264209","pname":"陕西省","cityname":"西安市","gcj02_lat":"34.325137","name":"西安长岛盛业","gcj02_lon":"109.068798","type":"商务住宅;住宅区;住宅小区"}}, {"type":"Feature", "geometry":{"type":"Point","coordinates":[109.06412305266899,34.32828322971567]}, "properties":{"typecode":"120302","wgs84_lat":"34.32828322971567","address":"世博大道2199号","adname":"灞桥区","wgs84_lon":"109.06412305266899","pname":"陕西省","cityname":"西安市","gcj02_lat":"34.327043","name":"世园大公馆","gcj02_lon":"109.069250","type":"商务住宅;住宅区;住宅小区"}}, {"type":"Feature", "geometry":{"type":"Point","coordinates":[109.06478776475238,34.326238341761915]}, "properties":{"typecode":"120302","wgs84_lat":"34.326238341761915","address":"世博大道(西安世博园东侧约50米)","adname":"灞桥区","wgs84_lon":"109.06478776475238","pname":"陕西省","cityname":"西安市","gcj02_lat":"34.324998","name":"读书村安置楼","gcj02_lon":"109.069916","type":"商务住宅;住宅区;住宅小区"}}, {"type":"Feature", "geometry":{"type":"Point","coordinates":[109.06630675838113,34.323295843193065]}, "properties":{"typecode":"120302","wgs84_lat":"34.323295843193065","address":"世博大道","adname":"灞桥区","wgs84_lon":"109.06630675838113","pname":"陕西省","cityname":"西安市","gcj02_lat":"34.322056","name":"中南林樾","gcj02_lon":"109.071438","type":"商务住宅;住宅区;住宅小区"}}, {"type":"Feature", "geometry":{"type":"Point","coordinates":[109.06668347177467,34.31752207521653]}, "properties":{"typecode":"120302","wgs84_lat":"34.31752207521653","address":"浐灞生态区世博大道","adname":"灞桥区","wgs84_lon":"109.06668347177467","pname":"陕西省","cityname":"西安市","gcj02_lat":"34.316280","name":"世园村","gcj02_lon":"109.071815","type":"商务住宅;住宅区;住宅小区"}}, {"type":"Feature", "geometry":{"type":"Point","coordinates":[109.0580621478069,34.309135761206925]}, "properties":{"typecode":"120302","wgs84_lat":"34.309135761206925","address":"席王街道金桥一路266号","adname":"灞桥区","wgs84_lon":"109.0580621478069","pname":"陕西省","cityname":"西安市","gcj02_lat":"34.307878","name":"香江湾","gcj02_lon":"109.063173","type":"商务住宅;住宅区;住宅小区"}}, {"type":"Feature", "geometry":{"type":"Point","coordinates":[109.06331071538366,34.30717904065553]}, "properties":{"typecode":"120302","wgs84_lat":"34.30717904065553","address":"柳亭路138号","adname":"灞桥区","wgs84_lon":"109.06331071538366","pname":"陕西省","cityname":"西安市","gcj02_lat":"34.305928","name":"柳林居小区","gcj02_lon":"109.068434","type":"商务住宅;住宅区;住宅小区"}}, {"type":"Feature", "geometry":{"type":"Point","coordinates":[109.06119573267911,34.305921526304324]}, "properties":{"typecode":"120302","wgs84_lat":"34.305921526304324","address":"灞桥街道灞桥火车站","adname":"灞桥区","wgs84_lon":"109.06119573267911","pname":"陕西省","cityname":"西安市","gcj02_lat":"34.304667","name":"西安浐灞亭路车务段小区","gcj02_lon":"109.066314","type":"商务住宅;住宅区;住宅小区"}}, {"type":"Feature", "geometry":{"type":"Point","coordinates":[109.06142917961182,34.30592119451271]}, "properties":{"typecode":"120302","wgs84_lat":"34.30592119451271","address":"柳巷村集贸市场西北(柳亭路西)","adname":"灞桥区","wgs84_lon":"109.06142917961182","pname":"陕西省","cityname":"西安市","gcj02_lat":"34.304667","name":"西铁灞桥车务段住宅小区","gcj02_lon":"109.066548","type":"商务住宅;住宅区;住宅小区"}}, {"type":"Feature", "geometry":{"type":"Point","coordinates":[109.061917983262,34.30646526333312]}, "properties":{"typecode":"120302","wgs84_lat":"34.30646526333312","address":"柳亭路135号","adname":"灞桥区","wgs84_lon":"109.061917983262","pname":"陕西省","cityname":"西安市","gcj02_lat":"34.305212","name":"西安市灞桥区省铁路职校家属院","gcj02_lon":"109.067038","type":"商务住宅;住宅区;住宅小区"}}, {"type":"Feature", "geometry":{"type":"Point","coordinates":[109.06711165717485,34.30520216332132]}, "properties":{"typecode":"120302","wgs84_lat":"34.30520216332132","address":"东城大道181号","adname":"灞桥区","wgs84_lon":"109.06711165717485","pname":"陕西省","cityname":"西安市","gcj02_lat":"34.303955","name":"灞桥区水务局家属院","gcj02_lon":"109.072243","type":"商务住宅;住宅区;住宅小区"}}, {"type":"Feature", "geometry":{"type":"Point","coordinates":[109.0576520505771,34.29925980520449]}, "properties":{"typecode":"120302","wgs84_lat":"34.29925980520449","address":"东城大道与柳虹路交叉口南200米","adname":"灞桥区","wgs84_lon":"109.0576520505771","pname":"陕西省","cityname":"西安市","gcj02_lat":"34.297997","name":"幸福花园","gcj02_lon":"109.062761","type":"商务住宅;住宅区;住宅小区"}}, {"type":"Feature", "geometry":{"type":"Point","coordinates":[109.0617758467452,34.30037017273871]}, "properties":{"typecode":"120302","wgs84_lat":"34.30037017273871","address":"东城大道与柳亭路交汇处东侧150米路南正东方向30米","adname":"灞桥区","wgs84_lon":"109.0617758467452","pname":"陕西省","cityname":"西安市","gcj02_lat":"34.299114","name":"官厅新村","gcj02_lon":"109.066895","type":"商务住宅;住宅区;住宅小区"}}, {"type":"Feature", "geometry":{"type":"Point","coordinates":[109.06317290407802,34.29712068350308]}, "properties":{"typecode":"120302","wgs84_lat":"34.29712068350308","address":"纺渭路与席王路十字北1公里路西","adname":"灞桥区","wgs84_lon":"109.06317290407802","pname":"陕西省","cityname":"西安市","gcj02_lat":"34.295865","name":"高科绿水东城","gcj02_lon":"109.068295","type":"商务住宅;住宅区;住宅小区"}}, {"type":"Feature", "geometry":{"type":"Point","coordinates":[109.0539657508034,34.299940597234965]}, "properties":{"typecode":"120302","wgs84_lat":"34.299940597234965","address":"通塬路与金茂四路交叉口东南340米","adname":"灞桥区","wgs84_lon":"109.0539657508034","pname":"陕西省","cityname":"西安市","gcj02_lat":"34.298672","name":"西安西铁灞桥车站住宅小区","gcj02_lon":"109.059065","type":"商务住宅;住宅区;住宅小区"}}, {"type":"Feature", "geometry":{"type":"Point","coordinates":[109.05496706562911,34.299570050711246]}, "properties":{"typecode":"120302","wgs84_lat":"34.299570050711246","address":"灞桥街道灞桥火车站向西200米","adname":"灞桥区","wgs84_lon":"109.05496706562911","pname":"陕西省","cityname":"西安市","gcj02_lat":"34.298303","name":"官厅佳苑","gcj02_lon":"109.060069","type":"商务住宅;住宅区;住宅小区"}}, {"type":"Feature", "geometry":{"type":"Point","coordinates":[109.0550106012566,34.3035682078003]}, "properties":{"typecode":"120302","wgs84_lat":"34.3035682078003","address":"火车站柳巷","adname":"灞桥区","wgs84_lon":"109.0550106012566","pname":"陕西省","cityname":"西安市","gcj02_lat":"34.302303","name":"灞桥铁路小区","gcj02_lon":"109.060113","type":"商务住宅;住宅区;住宅小区"}}, {"type":"Feature", "geometry":{"type":"Point","coordinates":[109.05883610779765,34.298708210286385]}, "properties":{"typecode":"120302","wgs84_lat":"34.298708210286385","address":"席王街道柳虹路(灞桥火车站梁家街菜市场)","adname":"灞桥区","wgs84_lon":"109.05883610779765","pname":"陕西省","cityname":"西安市","gcj02_lat":"34.297447","name":"梁家街新村","gcj02_lon":"109.063948","type":"商务住宅;住宅区;住宅小区"}}, {"type":"Feature", "geometry":{"type":"Point","coordinates":[109.04912165226695,34.29907581334385]}, "properties":{"typecode":"120302","wgs84_lat":"34.29907581334385","address":"灞桥街道灞桥正街","adname":"灞桥区","wgs84_lon":"109.04912165226695","pname":"陕西省","cityname":"西安市","gcj02_lat":"34.297798","name":"西铁浐灞小区","gcj02_lon":"109.054207","type":"商务住宅;住宅区;住宅小区"}}, {"type":"Feature", "geometry":{"type":"Point","coordinates":[109.05008408370615,34.295999332036445]}, "properties":{"typecode":"120302","wgs84_lat":"34.295999332036445","address":"官厅立交与西潼高速交叉口东南150米","adname":"灞桥区","wgs84_lon":"109.05008408370615","pname":"陕西省","cityname":"西安市","gcj02_lat":"34.294722","name":"官二小区","gcj02_lon":"109.055172","type":"商务住宅;住宅区;住宅小区"}}, {"type":"Feature", "geometry":{"type":"Point","coordinates":[109.06205346554475,34.297293137246875]}, "properties":{"typecode":"120302","wgs84_lat":"34.297293137246875","address":"柳虹路3组","adname":"灞桥区","wgs84_lon":"109.06205346554475","pname":"陕西省","cityname":"西安市","gcj02_lat":"34.296036","name":"高科绿水东城五期","gcj02_lon":"109.067173","type":"商务住宅;住宅区;住宅小区"}}, {"type":"Feature", "geometry":{"type":"Point","coordinates":[109.06104107236577,34.29475667299769]}, "properties":{"typecode":"120302","wgs84_lat":"34.29475667299769","address":"灞瑞一路与芳邻巷交叉口东80米","adname":"灞桥区","wgs84_lon":"109.06104107236577","pname":"陕西省","cityname":"西安市","gcj02_lat":"34.293497","name":"高科绿水东城6区","gcj02_lon":"109.066158","type":"商务住宅;住宅区;住宅小区"}}, {"type":"Feature", "geometry":{"type":"Point","coordinates":[109.04990520081574,34.30068861123993]}, "properties":{"typecode":"120302","wgs84_lat":"34.30068861123993","address":"灞桥街道西安市灞桥火车站","adname":"灞桥区","wgs84_lon":"109.04990520081574","pname":"陕西省","cityname":"西安市","gcj02_lat":"34.299413","name":"灞水佳园","gcj02_lon":"109.054993","type":"商务住宅;住宅区;住宅小区"}}, {"type":"Feature", "geometry":{"type":"Point","coordinates":[109.06277310969071,34.29375568896714]}, "properties":{"typecode":"120302","wgs84_lat":"34.29375568896714","address":"灞瑞一路与柳鸣路十字西南角向南50米","adname":"灞桥区","wgs84_lon":"109.06277310969071","pname":"陕西省","cityname":"西安市","gcj02_lat":"34.292498","name":"西安领航·悦宸(建设中)","gcj02_lon":"109.067894","type":"商务住宅;住宅区;住宅小区"}}, {"type":"Feature", "geometry":{"type":"Point","coordinates":[109.06008752728413,34.29292585332926]}, "properties":{"typecode":"120302","wgs84_lat":"34.29292585332926","address":"芳邻巷与柳新路交叉口北80米","adname":"灞桥区","wgs84_lon":"109.06008752728413","pname":"陕西省","cityname":"西安市","gcj02_lat":"34.291664","name":"席王廉租房小区","gcj02_lon":"109.065202","type":"商务住宅;住宅区;住宅小区"}}, {"type":"Feature", "geometry":{"type":"Point","coordinates":[109.06378213549795,34.30164288404971]}, "properties":{"typecode":"120302","wgs84_lat":"34.30164288404971","address":"东城大道22-23附近","adname":"灞桥区","wgs84_lon":"109.06378213549795","pname":"陕西省","cityname":"西安市","gcj02_lat":"34.300390","name":"浐灞时代","gcj02_lon":"109.068906","type":"商务住宅;住宅区;住宅小区"}}, {"type":"Feature", "geometry":{"type":"Point","coordinates":[109.04556915277153,34.29136022595108]}, "properties":{"typecode":"120302","wgs84_lat":"34.29136022595108","address":"电厂西路1818号","adname":"灞桥区","wgs84_lon":"109.04556915277153","pname":"陕西省","cityname":"西安市","gcj02_lat":"34.290072","name":"电厂社区","gcj02_lon":"109.050643","type":"商务住宅;住宅区;住宅小区"}}, {"type":"Feature", "geometry":{"type":"Point","coordinates":[109.04602455891464,34.29336542903736]}, "properties":{"typecode":"120302","wgs84_lat":"34.29336542903736","address":"东三环辅路与东三环出口交叉口东北180米","adname":"灞桥区","wgs84_lon":"109.04602455891464","pname":"陕西省","cityname":"西安市","gcj02_lat":"34.292079","name":"西安第四制药厂家属院","gcj02_lon":"109.051100","type":"商务住宅;住宅区;住宅小区"}}, {"type":"Feature", "geometry":{"type":"Point","coordinates":[109.0640456851813,34.30005424062354]}, "properties":{"typecode":"120302","wgs84_lat":"34.30005424062354","address":"(连霍高速公路北)","adname":"灞桥区","wgs84_lon":"109.0640456851813","pname":"陕西省","cityname":"西安市","gcj02_lat":"34.298801","name":"东梁家街","gcj02_lon":"109.069170","type":"商务住宅;住宅区;住宅小区"}}, {"type":"Feature", "geometry":{"type":"Point","coordinates":[109.06491961587349,34.301699390850644]}, "properties":{"typecode":"120302","wgs84_lat":"34.301699390850644","address":"东城大道南100米","adname":"灞桥区","wgs84_lon":"109.06491961587349","pname":"陕西省","cityname":"西安市","gcj02_lat":"34.300448","name":"柳巷佳园","gcj02_lon":"109.070046","type":"商务住宅;住宅区;住宅小区"}}, {"type":"Feature", "geometry":{"type":"Point","coordinates":[109.06730658699051,34.301402625299026]}, "properties":{"typecode":"120302","wgs84_lat":"34.301402625299026","address":"纺渭路3188号","adname":"灞桥区","wgs84_lon":"109.06730658699051","pname":"陕西省","cityname":"西安市","gcj02_lat":"34.300154","name":"东江·世园名城","gcj02_lon":"109.072438","type":"商务住宅;住宅区;住宅小区"}}, {"type":"Feature", "geometry":{"type":"Point","coordinates":[109.06693208715897,34.30453267292509]}, "properties":{"typecode":"120302","wgs84_lat":"34.30453267292509","address":"东城大道与柳雪路交叉口西南180米","adname":"灞桥区","wgs84_lon":"109.06693208715897","pname":"陕西省","cityname":"西安市","gcj02_lat":"34.303285","name":"西安第三十四中学家属院","gcj02_lon":"109.072063","type":"商务住宅;住宅区;住宅小区"}}, {"type":"Feature", "geometry":{"type":"Point","coordinates":[109.06626873437855,34.30155478677848]}, "properties":{"typecode":"120302","wgs84_lat":"34.30155478677848","address":"东城大道附近","adname":"灞桥区","wgs84_lon":"109.06626873437855","pname":"陕西省","cityname":"西安市","gcj02_lat":"34.300305","name":"灞柳良居","gcj02_lon":"109.071398","type":"商务住宅;住宅区;住宅小区"}}, {"type":"Feature", "geometry":{"type":"Point","coordinates":[109.04842518573624,34.28228138281631]}, "properties":{"typecode":"120302","wgs84_lat":"34.28228138281631","address":"长乐路半坡十字北550米路东","adname":"灞桥区","wgs84_lon":"109.04842518573624","pname":"陕西省","cityname":"西安市","gcj02_lat":"34.280995","name":"尚东国际城","gcj02_lon":"109.053507","type":"商务住宅;住宅区;住宅小区"}}, {"type":"Feature", "geometry":{"type":"Point","coordinates":[109.06529378175046,34.278986681373006]}, "properties":{"typecode":"120302","wgs84_lat":"34.278986681373006","address":"纺北路与纺新街交汇处1号、6号地铁线纺织城站","adname":"灞桥区","wgs84_lon":"109.06529378175046","pname":"陕西省","cityname":"西安市","gcj02_lat":"34.277726","name":"金海湾","gcj02_lon":"109.070419","type":"商务住宅;住宅区;住宅小区"}}, {"type":"Feature", "geometry":{"type":"Point","coordinates":[109.05576018551255,34.285325880893076]}, "properties":{"typecode":"120302","wgs84_lat":"34.285325880893076","address":"新寺路1号","adname":"灞桥区","wgs84_lon":"109.05576018551255","pname":"陕西省","cityname":"西安市","gcj02_lat":"34.284054","name":"硅酸盐家属院","gcj02_lon":"109.060863","type":"商务住宅;住宅区;住宅小区"}}, {"type":"Feature", "geometry":{"type":"Point","coordinates":[109.05441200205776,34.28302812041985]}, "properties":{"typecode":"120302","wgs84_lat":"34.28302812041985","address":"新寺路与电厂东路交叉口东南160米","adname":"灞桥区","wgs84_lon":"109.05441200205776","pname":"陕西省","cityname":"西安市","gcj02_lat":"34.281753","name":"人民日报西安印务中心家属院","gcj02_lon":"109.059511","type":"商务住宅;住宅区;住宅小区"}}, {"type":"Feature", "geometry":{"type":"Point","coordinates":[109.0529470952285,34.282309970723]}, "properties":{"typecode":"120302","wgs84_lat":"34.282309970723","address":"电厂东路259号","adname":"灞桥区","wgs84_lon":"109.0529470952285","pname":"陕西省","cityname":"西安市","gcj02_lat":"34.281032","name":"幸福东郡","gcj02_lon":"109.058042","type":"商务住宅;住宅区;住宅小区"}}, {"type":"Feature", "geometry":{"type":"Point","coordinates":[109.05286237443008,34.28181532867375]}, "properties":{"typecode":"120302","wgs84_lat":"34.28181532867375","address":"电厂东路向北500米","adname":"灞桥区","wgs84_lon":"109.05286237443008","pname":"陕西省","cityname":"西安市","gcj02_lat":"34.280537","name":"东城·翡翠湾","gcj02_lon":"109.057957","type":"商务住宅;住宅区;住宅小区"}}, {"type":"Feature", "geometry":{"type":"Point","coordinates":[109.05548819128131,34.282063709951565]}, "properties":{"typecode":"120302","wgs84_lat":"34.282063709951565","address":"新寺路中段(第四军医大学唐都医院斜对面)","adname":"灞桥区","wgs84_lon":"109.05548819128131","pname":"陕西省","cityname":"西安市","gcj02_lat":"34.280790","name":"西安城建·清凉云晖(建设中)","gcj02_lon":"109.060590","type":"商务住宅;住宅区;住宅小区"}}, {"type":"Feature", "geometry":{"type":"Point","coordinates":[109.06191239944442,34.27885121196824]}, "properties":{"typecode":"120302","wgs84_lat":"34.27885121196824","address":"纺新街10号(纺织城地铁站F西南口步行290米)","adname":"灞桥区","wgs84_lon":"109.06191239944442","pname":"陕西省","cityname":"西安市","gcj02_lat":"34.277586","name":"园丁花苑2区","gcj02_lon":"109.067030","type":"商务住宅;住宅区;住宅小区"}}, {"type":"Feature", "geometry":{"type":"Point","coordinates":[109.05469451912731,34.27977400473666]}, "properties":{"typecode":"120302","wgs84_lat":"34.27977400473666","address":"纺织城街道川渝人家后面","adname":"灞桥区","wgs84_lon":"109.05469451912731","pname":"陕西省","cityname":"西安市","gcj02_lat":"34.278498","name":"阳光时代","gcj02_lon":"109.059794","type":"商务住宅;住宅区;住宅小区"}}, {"type":"Feature", "geometry":{"type":"Point","coordinates":[109.06095849750974,34.28063681723468]}, "properties":{"typecode":"120302","wgs84_lat":"34.28063681723468","address":"纺织城地铁站B西南口步行420米","adname":"灞桥区","wgs84_lon":"109.06095849750974","pname":"陕西省","cityname":"西安市","gcj02_lat":"34.279371","name":"芙蓉小区","gcj02_lon":"109.066074","type":"商务住宅;住宅区;住宅小区"}}, {"type":"Feature", "geometry":{"type":"Point","coordinates":[109.06027186184026,34.283934426808656]}, "properties":{"typecode":"120302","wgs84_lat":"34.283934426808656","address":"席王街道新寺路(纺织城地铁站出入口步行440米)","adname":"灞桥区","wgs84_lon":"109.06027186184026","pname":"陕西省","cityname":"西安市","gcj02_lat":"34.282669","name":"新寺路席王安置楼","gcj02_lon":"109.065386","type":"商务住宅;住宅区;住宅小区"}}, {"type":"Feature", "geometry":{"type":"Point","coordinates":[109.05764876226088,34.27966021401853]}, "properties":{"typecode":"120302","wgs84_lat":"34.27966021401853","address":"新医路与长乐东路交叉口西北80米","adname":"灞桥区","wgs84_lon":"109.05764876226088","pname":"陕西省","cityname":"西安市","gcj02_lat":"34.278389","name":"乡镇企业小区","gcj02_lon":"109.062756","type":"商务住宅;住宅区;住宅小区"}}, {"type":"Feature", "geometry":{"type":"Point","coordinates":[109.05245271305654,34.279610981433564]}, "properties":{"typecode":"120302","wgs84_lat":"34.279610981433564","address":"电厂东路","adname":"灞桥区","wgs84_lon":"109.05245271305654","pname":"陕西省","cityname":"西安市","gcj02_lat":"34.278331","name":"长乐小区A区","gcj02_lon":"109.057546","type":"商务住宅;住宅区;住宅小区"}}, {"type":"Feature", "geometry":{"type":"Point","coordinates":[109.05813748604344,34.280044287908744]}, "properties":{"typecode":"120302","wgs84_lat":"34.280044287908744","address":"新医路与长乐东路东北角","adname":"灞桥区","wgs84_lon":"109.05813748604344","pname":"陕西省","cityname":"西安市","gcj02_lat":"34.278774","name":"东方世纪城小区","gcj02_lon":"109.063246","type":"商务住宅;住宅区;住宅小区"}}, {"type":"Feature", "geometry":{"type":"Point","coordinates":[109.0522762461005,34.279192472361366]}, "properties":{"typecode":"120302","wgs84_lat":"34.279192472361366","address":"堡子村电厂东路","adname":"灞桥区","wgs84_lon":"109.0522762461005","pname":"陕西省","cityname":"西安市","gcj02_lat":"34.277912","name":"地铁首府","gcj02_lon":"109.057369","type":"商务住宅;住宅区;住宅小区"}}, {"type":"Feature", "geometry":{"type":"Point","coordinates":[109.05350982655935,34.278943391794115]}, "properties":{"typecode":"120302","wgs84_lat":"34.278943391794115","address":"纺北路39A(半坡地铁站D东北口步行490米)","adname":"灞桥区","wgs84_lon":"109.05350982655935","pname":"陕西省","cityname":"西安市","gcj02_lat":"34.277665","name":"玉泽花园","gcj02_lon":"109.058606","type":"商务住宅;住宅区;住宅小区"}}, {"type":"Feature", "geometry":{"type":"Point","coordinates":[109.05251852065909,34.27969782754927]}, "properties":{"typecode":"120302","wgs84_lat":"34.27969782754927","address":"电厂东路与电厂路交叉口东南140米","adname":"灞桥区","wgs84_lon":"109.05251852065909","pname":"陕西省","cityname":"西安市","gcj02_lat":"34.278418","name":"电厂东路长乐小区A区","gcj02_lon":"109.057612","type":"商务住宅;住宅区;住宅小区"}}, {"type":"Feature", "geometry":{"type":"Point","coordinates":[109.05956592403149,34.28002911402746]}, "properties":{"typecode":"120302","wgs84_lat":"34.28002911402746","address":"长乐东路与新医路交叉口东北180米","adname":"灞桥区","wgs84_lon":"109.05956592403149","pname":"陕西省","cityname":"西安市","gcj02_lat":"34.278761","name":"检察院小区(长乐东路)","gcj02_lon":"109.064678","type":"商务住宅;住宅区;住宅小区"}}, {"type":"Feature", "geometry":{"type":"Point","coordinates":[109.05156627379951,34.2790298248808]}, "properties":{"typecode":"120302","wgs84_lat":"34.2790298248808","address":"电厂东路","adname":"灞桥区","wgs84_lon":"109.05156627379951","pname":"陕西省","cityname":"西安市","gcj02_lat":"34.277748","name":"电厂东路长乐小区B区","gcj02_lon":"109.056657","type":"商务住宅;住宅区;住宅小区"}}, {"type":"Feature", "geometry":{"type":"Point","coordinates":[109.06014548997533,34.28023516779363]}, "properties":{"typecode":"120302","wgs84_lat":"34.28023516779363","address":"长乐东路与新医路交叉口东北240米","adname":"灞桥区","wgs84_lon":"109.06014548997533","pname":"陕西省","cityname":"西安市","gcj02_lat":"34.278968","name":"民政局家属院(长乐东路)","gcj02_lon":"109.065259","type":"商务住宅;住宅区;住宅小区"}}, {"type":"Feature", "geometry":{"type":"Point","coordinates":[109.0540943104426,34.27792180346198]}, "properties":{"typecode":"120302","wgs84_lat":"34.27792180346198","address":"灞桥区纺织城纺北路(半坡地铁站D东北口步行290米)","adname":"灞桥区","wgs84_lon":"109.0540943104426","pname":"陕西省","cityname":"西安市","gcj02_lat":"34.276644","name":"纺北坊","gcj02_lon":"109.059192","type":"商务住宅;住宅区;住宅小区"}}, {"type":"Feature", "geometry":{"type":"Point","coordinates":[109.04394209715642,34.28215952932387]}, "properties":{"typecode":"120302","wgs84_lat":"34.28215952932387","address":"梁家街","adname":"灞桥区","wgs84_lon":"109.04394209715642","pname":"陕西省","cityname":"西安市","gcj02_lat":"34.280864","name":"尚东城小区","gcj02_lon":"109.04901","type":"商务住宅;住宅区;住宅小区"}}, {"type":"Feature", "geometry":{"type":"Point","coordinates":[109.05362871554638,34.28797037515224]}, "properties":{"typecode":"120302","wgs84_lat":"34.28797037515224","address":"电厂东路","adname":"灞桥区","wgs84_lon":"109.05362871554638","pname":"陕西省","cityname":"西安市","gcj02_lat":"34.286696","name":"卞家村小区","gcj02_lon":"109.058726","type":"商务住宅;住宅区;住宅小区"}}, {"type":"Feature", "geometry":{"type":"Point","coordinates":[109.05977848175756,34.27911917699021]}, "properties":{"typecode":"120302","wgs84_lat":"34.27911917699021","address":"长乐东路与新医路交叉口东160米","adname":"灞桥区","wgs84_lon":"109.05977848175756","pname":"陕西省","cityname":"西安市","gcj02_lat":"34.277851","name":"测绘院小区","gcj02_lon":"109.064891","type":"商务住宅;住宅区;住宅小区"}}, {"type":"Feature", "geometry":{"type":"Point","coordinates":[109.0562593868764,34.27936156939859]}, "properties":{"typecode":"120302","wgs84_lat":"34.27936156939859","address":"长乐东路与新医路交叉口西160米","adname":"灞桥区","wgs84_lon":"109.0562593868764","pname":"陕西省","cityname":"西安市","gcj02_lat":"34.278088","name":"创新名城(建设中)","gcj02_lon":"109.061363","type":"商务住宅;住宅区;住宅小区"}}, {"type":"Feature", "geometry":{"type":"Point","coordinates":[109.0478551808911,34.27907284174284]}, "properties":{"typecode":"120302","wgs84_lat":"34.27907284174284","address":"半坡地铁站D东北口步行490米","adname":"灞桥区","wgs84_lon":"109.0478551808911","pname":"陕西省","cityname":"西安市","gcj02_lat":"34.277784","name":"辰宇·世纪城","gcj02_lon":"109.052935","type":"商务住宅;住宅区;住宅小区"}}, {"type":"Feature", "geometry":{"type":"Point","coordinates":[109.04717647512152,34.28796643155505]}, "properties":{"typecode":"120302","wgs84_lat":"34.28796643155505","address":"电厂西路1211号","adname":"灞桥区","wgs84_lon":"109.04717647512152","pname":"陕西省","cityname":"西安市","gcj02_lat":"34.286680","name":"电厂第二社区","gcj02_lon":"109.052255","type":"商务住宅;住宅区;住宅小区"}}, {"type":"Feature", "geometry":{"type":"Point","coordinates":[109.06213193995806,34.27824815765471]}, "properties":{"typecode":"120302","wgs84_lat":"34.27824815765471","address":"纺新街8号","adname":"灞桥区","wgs84_lon":"109.06213193995806","pname":"陕西省","cityname":"西安市","gcj02_lat":"34.276983","name":"席王小区","gcj02_lon":"109.067250","type":"商务住宅;住宅区;住宅小区"}}, {"type":"Feature", "geometry":{"type":"Point","coordinates":[109.06163914709705,34.2776211070273]}, "properties":{"typecode":"120302","wgs84_lat":"34.2776211070273","address":"纺星一区","adname":"灞桥区","wgs84_lon":"109.06163914709705","pname":"陕西省","cityname":"西安市","gcj02_lat":"34.276355","name":"纺星一区西区","gcj02_lon":"109.066756","type":"商务住宅;住宅区;住宅小区"}}, {"type":"Feature", "geometry":{"type":"Point","coordinates":[109.05116135732975,34.2799022022109]}, "properties":{"typecode":"120302","wgs84_lat":"34.2799022022109","address":"电厂东路与电厂路交叉口南80米","adname":"灞桥区","wgs84_lon":"109.05116135732975","pname":"陕西省","cityname":"西安市","gcj02_lat":"34.278620","name":"心怡小区","gcj02_lon":"109.056251","type":"商务住宅;住宅区;住宅小区"}}, {"type":"Feature", "geometry":{"type":"Point","coordinates":[109.06588162052466,34.277841431196286]}, "properties":{"typecode":"120302","wgs84_lat":"34.277841431196286","address":"席王街道纺织城(纺织城地铁站E西北口步行410米)","adname":"灞桥区","wgs84_lon":"109.06588162052466","pname":"陕西省","cityname":"西安市","gcj02_lat":"34.276581","name":"灞桥园丁花苑","gcj02_lon":"109.071008","type":"商务住宅;住宅区;住宅小区"}}, {"type":"Feature", "geometry":{"type":"Point","coordinates":[109.04569240649244,34.28397512471914]}, "properties":{"typecode":"120302","wgs84_lat":"34.28397512471914","address":"东三环辅路与御锦二路交叉口东260米","adname":"灞桥区","wgs84_lon":"109.04569240649244","pname":"陕西省","cityname":"西安市","gcj02_lat":"34.282684","name":"幸福明珠小区","gcj02_lon":"109.050766","type":"商务住宅;住宅区;住宅小区"}}, {"type":"Feature", "geometry":{"type":"Point","coordinates":[109.06691204990987,34.28248625048154]}, "properties":{"typecode":"120302","wgs84_lat":"34.28248625048154","address":"柳莺路与纺渭路交叉口西南150米","adname":"灞桥区","wgs84_lon":"109.06691204990987","pname":"陕西省","cityname":"西安市","gcj02_lat":"34.281229","name":"玲珑苑","gcj02_lon":"109.072041","type":"商务住宅;住宅区;住宅小区"}}, {"type":"Feature", "geometry":{"type":"Point","coordinates":[109.04585139494594,34.28993326201624]}, "properties":{"typecode":"120302","wgs84_lat":"34.28993326201624","address":"东三环辅路与御锦四路交叉口东南240米","adname":"灞桥区","wgs84_lon":"109.04585139494594","pname":"陕西省","cityname":"西安市","gcj02_lat":"34.288645","name":"西安电力工业学校家属院","gcj02_lon":"109.050926","type":"商务住宅;住宅区;住宅小区"}}, {"type":"Feature", "geometry":{"type":"Point","coordinates":[109.06432202562397,34.27761448748724]}, "properties":{"typecode":"120302","wgs84_lat":"34.27761448748724","address":"纺新街灞桥园丁花苑","adname":"灞桥区","wgs84_lon":"109.06432202562397","pname":"陕西省","cityname":"西安市","gcj02_lat":"34.276352","name":"陕西省安居工程","gcj02_lon":"109.069445","type":"商务住宅;住宅区;住宅小区"}}, {"type":"Feature", "geometry":{"type":"Point","coordinates":[109.06536348187791,34.2807028771012]}, "properties":{"typecode":"120302","wgs84_lat":"34.2807028771012","address":"工人文化宫对面艾丽思花园(纺织城地铁站C东南口旁)","adname":"灞桥区","wgs84_lon":"109.06536348187791","pname":"陕西省","cityname":"西安市","gcj02_lat":"34.279443","name":"艾丽思花园","gcj02_lon":"109.070489","type":"商务住宅;住宅区;住宅小区"}}, {"type":"Feature", "geometry":{"type":"Point","coordinates":[109.04560282116393,34.28241796492876]}, "properties":{"typecode":"120302","wgs84_lat":"34.28241796492876","address":"电厂西路","adname":"灞桥区","wgs84_lon":"109.04560282116393","pname":"陕西省","cityname":"西安市","gcj02_lat":"34.281126","name":"梁一小区","gcj02_lon":"109.050676","type":"商务住宅;住宅区;住宅小区"}}, {"type":"Feature", "geometry":{"type":"Point","coordinates":[109.04526820880699,34.27850029326694]}, "properties":{"typecode":"120302","wgs84_lat":"34.27850029326694","address":"电厂西路10号","adname":"灞桥区","wgs84_lon":"109.04526820880699","pname":"陕西省","cityname":"西安市","gcj02_lat":"34.277206","name":"汽车修理厂家属院","gcj02_lon":"109.050340","type":"商务住宅;住宅区;住宅小区"}}, {"type":"Feature", "geometry":{"type":"Point","coordinates":[109.06260998705581,34.27648723076508]}, "properties":{"typecode":"120302","wgs84_lat":"34.27648723076508","address":"纺新街与纺建路交叉口西北40米","adname":"灞桥区","wgs84_lon":"109.06260998705581","pname":"陕西省","cityname":"西安市","gcj02_lat":"34.275222","name":"纺星一区","gcj02_lon":"109.067729","type":"商务住宅;住宅区;住宅小区"}}, {"type":"Feature", "geometry":{"type":"Point","coordinates":[109.06056757223621,34.279053044223296]}, "properties":{"typecode":"120302","wgs84_lat":"34.279053044223296","address":"长乐东路758号","adname":"灞桥区","wgs84_lon":"109.06056757223621","pname":"陕西省","cityname":"西安市","gcj02_lat":"34.277786","name":"陕钢物业资产公司东郊小区","gcj02_lon":"109.065682","type":"商务住宅;住宅区;住宅小区"}}, {"type":"Feature", "geometry":{"type":"Point","coordinates":[109.04527142703829,34.287421526831764]}, "properties":{"typecode":"120302","wgs84_lat":"34.287421526831764","address":"电厂西路","adname":"灞桥区","wgs84_lon":"109.04527142703829","pname":"陕西省","cityname":"西安市","gcj02_lat":"34.286131","name":"美庐·雅苑","gcj02_lon":"109.050344","type":"商务住宅;住宅区;住宅小区"}}, {"type":"Feature", "geometry":{"type":"Point","coordinates":[109.05601766400902,34.271975018843655]}, "properties":{"typecode":"120302","wgs84_lat":"34.271975018843655","address":"纺正街538号","adname":"灞桥区","wgs84_lon":"109.05601766400902","pname":"陕西省","cityname":"西安市","gcj02_lat":"34.270698","name":"现代花城","gcj02_lon":"109.061120","type":"商务住宅;住宅区;住宅小区"}}, {"type":"Feature", "geometry":{"type":"Point","coordinates":[109.04483695112904,34.274066022184755]}, "properties":{"typecode":"120302","wgs84_lat":"34.274066022184755","address":"红旗街道半坡路210号","adname":"灞桥区","wgs84_lon":"109.04483695112904","pname":"陕西省","cityname":"西安市","gcj02_lat":"34.272769","name":"丽水花都","gcj02_lon":"109.049907","type":"商务住宅;住宅区;住宅小区"}}, {"type":"Feature", "geometry":{"type":"Point","coordinates":[109.05587613627358,34.270838716328434]}, "properties":{"typecode":"120302","wgs84_lat":"34.270838716328434","address":"纺织城街道纺西街","adname":"灞桥区","wgs84_lon":"109.05587613627358","pname":"陕西省","cityname":"西安市","gcj02_lat":"34.269561","name":"东方雅居","gcj02_lon":"109.060978","type":"商务住宅;住宅区;住宅小区"}}, {"type":"Feature", "geometry":{"type":"Point","coordinates":[109.05655144730818,34.26986001027182]}, "properties":{"typecode":"120302","wgs84_lat":"34.26986001027182","address":"纺三路与纺织城西街交叉口东160米","adname":"灞桥区","wgs84_lon":"109.05655144730818","pname":"陕西省","cityname":"西安市","gcj02_lat":"34.268583","name":"纺三北区","gcj02_lon":"109.061655","type":"商务住宅;住宅区;住宅小区"}}, {"type":"Feature", "geometry":{"type":"Point","coordinates":[109.05762361315925,34.270602992115435]}, "properties":{"typecode":"120302","wgs84_lat":"34.270602992115435","address":"纺正街490号","adname":"灞桥区","wgs84_lon":"109.05762361315925","pname":"陕西省","cityname":"西安市","gcj02_lat":"34.269328","name":"美佳苑小区","gcj02_lon":"109.062730","type":"商务住宅;住宅区;住宅小区"}}, {"type":"Feature", "geometry":{"type":"Point","coordinates":[109.05606979825377,34.268845208840354]}, "properties":{"typecode":"120302","wgs84_lat":"34.268845208840354","address":"纺三路与纺织城西街交叉口东南120米","adname":"灞桥区","wgs84_lon":"109.05606979825377","pname":"陕西省","cityname":"西安市","gcj02_lat":"34.267567","name":"三棉·南区","gcj02_lon":"109.061172","type":"商务住宅;住宅区;住宅小区"}}, {"type":"Feature", "geometry":{"type":"Point","coordinates":[109.05820319597164,34.26995834734464]}, "properties":{"typecode":"120302","wgs84_lat":"34.26995834734464","address":"纺织城正街439号附近","adname":"灞桥区","wgs84_lon":"109.05820319597164","pname":"陕西省","cityname":"西安市","gcj02_lat":"34.268684","name":"三棉一号小区","gcj02_lon":"109.063311","type":"商务住宅;住宅区;住宅小区"}}, {"type":"Feature", "geometry":{"type":"Point","coordinates":[109.05731601852189,34.27501766846937]}, "properties":{"typecode":"120302","wgs84_lat":"34.27501766846937","address":"纺一路215号","adname":"灞桥区","wgs84_lon":"109.05731601852189","pname":"陕西省","cityname":"西安市","gcj02_lat":"34.273744","name":"一印社区","gcj02_lon":"109.062422","type":"商务住宅;住宅区;住宅小区"}}, {"type":"Feature", "geometry":{"type":"Point","coordinates":[109.05809261815939,34.26831818561708]}, "properties":{"typecode":"120302","wgs84_lat":"34.26831818561708","address":"纺织城正街420号","adname":"灞桥区","wgs84_lon":"109.05809261815939","pname":"陕西省","cityname":"西安市","gcj02_lat":"34.267043","name":"东纺小区","gcj02_lon":"109.063200","type":"商务住宅;住宅区;住宅小区"}}, {"type":"Feature", "geometry":{"type":"Point","coordinates":[109.05920675430767,34.269164132369475]}, "properties":{"typecode":"120302","wgs84_lat":"34.269164132369475","address":"纺织城正街与纺三路交叉口东60米","adname":"灞桥区","wgs84_lon":"109.05920675430767","pname":"陕西省","cityname":"西安市","gcj02_lat":"34.267891","name":"建盛商贸小区","gcj02_lon":"109.064317","type":"商务住宅;住宅区;住宅小区"}}, {"type":"Feature", "geometry":{"type":"Point","coordinates":[109.05536930259558,34.272911709646706]}, "properties":{"typecode":"120302","wgs84_lat":"34.272911709646706","address":"纺织城纺西街与纺建街交汇处","adname":"灞桥区","wgs84_lon":"109.05536930259558","pname":"陕西省","cityname":"西安市","gcj02_lat":"34.271634","name":"珑月湾","gcj02_lon":"109.060470","type":"商务住宅;住宅区;住宅小区"}}, {"type":"Feature", "geometry":{"type":"Point","coordinates":[109.06514160756913,34.27328323239176]}, "properties":{"typecode":"120302","wgs84_lat":"34.27328323239176","address":"纺织城鹿塬街390号","adname":"灞桥区","wgs84_lon":"109.06514160756913","pname":"陕西省","cityname":"西安市","gcj02_lat":"34.272020","name":"东江名苑","gcj02_lon":"109.070266","type":"商务住宅;住宅区;住宅小区"}}, {"type":"Feature", "geometry":{"type":"Point","coordinates":[109.05327005097449,34.272471487061]}, "properties":{"typecode":"120302|071100","wgs84_lat":"34.272471487061","address":"纺织城西街半坡国际艺术区A-209","adname":"灞桥区","wgs84_lon":"109.05327005097449","pname":"陕西省","cityname":"西安市","gcj02_lat":"34.271190","name":"杠杠美域","gcj02_lon":"109.058365","type":"商务住宅;住宅区;住宅小区|生活服务;美容美发店;美容美发店"}}, {"type":"Feature", "geometry":{"type":"Point","coordinates":[109.05266230114918,34.266045172769715]}, "properties":{"typecode":"120302","wgs84_lat":"34.266045172769715","address":"浐灞地铁一号线半坡站c口向南800米","adname":"灞桥区","wgs84_lon":"109.05266230114918","pname":"陕西省","cityname":"西安市","gcj02_lat":"34.264760","name":"合能铂悦府","gcj02_lon":"109.057755","type":"商务住宅;住宅区;住宅小区"}}, {"type":"Feature", "geometry":{"type":"Point","coordinates":[109.0587495549836,34.27304124461314]}, "properties":{"typecode":"120302","wgs84_lat":"34.27304124461314","address":"新医路与纺一路交叉口东南100米","adname":"灞桥区","wgs84_lon":"109.0587495549836","pname":"陕西省","cityname":"西安市","gcj02_lat":"34.271769","name":"西安电力机械厂纺二路家属院","gcj02_lon":"109.063859","type":"商务住宅;住宅区;住宅小区"}}, {"type":"Feature", "geometry":{"type":"Point","coordinates":[109.06694219949917,34.268565966655395]}, "properties":{"typecode":"120302","wgs84_lat":"34.268565966655395","address":"纺织城街道纺织城","adname":"灞桥区","wgs84_lon":"109.06694219949917","pname":"陕西省","cityname":"西安市","gcj02_lat":"34.267303","name":"逸景雅居","gcj02_lon":"109.072070","type":"商务住宅;住宅区;住宅小区"}}, {"type":"Feature", "geometry":{"type":"Point","coordinates":[109.05736307238547,34.27300442216371]}, "properties":{"typecode":"120302","wgs84_lat":"34.27300442216371","address":"纺一路926号","adname":"灞桥区","wgs84_lon":"109.05736307238547","pname":"陕西省","cityname":"西安市","gcj02_lat":"34.271730","name":"向阳坊社区","gcj02_lon":"109.062469","type":"商务住宅;住宅区;住宅小区"}}, {"type":"Feature", "geometry":{"type":"Point","coordinates":[109.05325578995604,34.275937085192695]}, "properties":{"typecode":"120302","wgs84_lat":"34.275937085192695","address":"纺正街2693号(半坡地铁站D东北口步行270米)","adname":"灞桥区","wgs84_lon":"109.05325578995604","pname":"陕西省","cityname":"西安市","gcj02_lat":"34.274657","name":"造纸网厂小区","gcj02_lon":"109.058351","type":"商务住宅;住宅区;住宅小区"}}, {"type":"Feature", "geometry":{"type":"Point","coordinates":[109.05861555280157,34.26541454881882]}, "properties":{"typecode":"120302","wgs84_lat":"34.26541454881882","address":"纺四路218号","adname":"灞桥区","wgs84_lon":"109.05861555280157","pname":"陕西省","cityname":"西安市","gcj02_lat":"34.264139","name":"诚盛小区","gcj02_lon":"109.063724","type":"商务住宅;住宅区;住宅小区"}}, {"type":"Feature", "geometry":{"type":"Point","coordinates":[109.06139857360904,34.26773749988634]}, "properties":{"typecode":"120302","wgs84_lat":"34.26773749988634","address":"纺织城街道纺四路46号三棉社区南区三棉社区南区","adname":"灞桥区","wgs84_lon":"109.06139857360904","pname":"陕西省","cityname":"西安市","gcj02_lat":"34.266467","name":"三棉纺科路小区","gcj02_lon":"109.066514","type":"商务住宅;住宅区;住宅小区"}}, {"type":"Feature", "geometry":{"type":"Point","coordinates":[109.06213450190683,34.27171784840239]}, "properties":{"typecode":"120302","wgs84_lat":"34.27171784840239","address":"纺织城街道纺织城纺东街","adname":"灞桥区","wgs84_lon":"109.06213450190683","pname":"陕西省","cityname":"西安市","gcj02_lat":"34.270450","name":"新欧洲","gcj02_lon":"109.067252","type":"商务住宅;住宅区;住宅小区"}}, {"type":"Feature", "geometry":{"type":"Point","coordinates":[109.05862949711472,34.26565343129939]}, "properties":{"typecode":"120302","wgs84_lat":"34.26565343129939","address":"纺四路与纺织城正街交叉口西100米","adname":"灞桥区","wgs84_lon":"109.05862949711472","pname":"陕西省","cityname":"西安市","gcj02_lat":"34.264378","name":"纺四路小区","gcj02_lon":"109.063738","type":"商务住宅;住宅区;住宅小区"}}, {"type":"Feature", "geometry":{"type":"Point","coordinates":[109.04788836415773,34.27579613730666]}, "properties":{"typecode":"120302","wgs84_lat":"34.27579613730666","address":"纺织城街道(半坡地铁站A西北口旁)","adname":"灞桥区","wgs84_lon":"109.04788836415773","pname":"陕西省","cityname":"西安市","gcj02_lat":"34.274506","name":"半坡国际广场","gcj02_lon":"109.052968","type":"商务住宅;住宅区;住宅小区"}}, {"type":"Feature", "geometry":{"type":"Point","coordinates":[109.06294872977021,34.27051722385366]}, "properties":{"typecode":"120302","wgs84_lat":"34.27051722385366","address":"纺三路18号","adname":"灞桥区","wgs84_lon":"109.06294872977021","pname":"陕西省","cityname":"西安市","gcj02_lat":"34.269250","name":"纺三路18号院","gcj02_lon":"109.068068","type":"商务住宅;住宅区;住宅小区"}}, {"type":"Feature", "geometry":{"type":"Point","coordinates":[109.06178274875118,34.2668233276678]}, "properties":{"typecode":"120302","wgs84_lat":"34.2668233276678","address":"纺织城街道纺织城正街328号","adname":"灞桥区","wgs84_lon":"109.06178274875118","pname":"陕西省","cityname":"西安市","gcj02_lat":"34.265553","name":"四棉厂住宅互助区","gcj02_lon":"109.066899","type":"商务住宅;住宅区;住宅小区"}}, {"type":"Feature", "geometry":{"type":"Point","coordinates":[109.06301163127762,34.269999349906826]}, "properties":{"typecode":"120302","wgs84_lat":"34.269999349906826","address":"纺织城东街309号","adname":"灞桥区","wgs84_lon":"109.06301163127762","pname":"陕西省","cityname":"西安市","gcj02_lat":"34.268732","name":"纺织城东街309号院","gcj02_lon":"109.068131","type":"商务住宅;住宅区;住宅小区"}}, {"type":"Feature", "geometry":{"type":"Point","coordinates":[109.06187478643861,34.26391037016311]}, "properties":{"typecode":"120302","wgs84_lat":"34.26391037016311","address":"霸桥区纺织城","adname":"灞桥区","wgs84_lon":"109.06187478643861","pname":"陕西省","cityname":"西安市","gcj02_lat":"34.262639","name":"四棉社区","gcj02_lon":"109.066991","type":"商务住宅;住宅区;住宅小区"}}, {"type":"Feature", "geometry":{"type":"Point","coordinates":[109.05254567198564,34.27707387155117]}, "properties":{"typecode":"120302","wgs84_lat":"34.27707387155117","address":"长乐东路与纺织城西街交叉口东80米","adname":"灞桥区","wgs84_lon":"109.05254567198564","pname":"陕西省","cityname":"西安市","gcj02_lat":"34.275793","name":"西安城建·清凉云集","gcj02_lon":"109.057639","type":"商务住宅;住宅区;住宅小区"}}, {"type":"Feature", "geometry":{"type":"Point","coordinates":[109.06566417746396,34.27677714018398]}, "properties":{"typecode":"120302","wgs84_lat":"34.27677714018398","address":"纺建路1号","adname":"灞桥区","wgs84_lon":"109.06566417746396","pname":"陕西省","cityname":"西安市","gcj02_lat":"34.275516","name":"东江锦苑","gcj02_lon":"109.070790","type":"商务住宅;住宅区;住宅小区"}}, {"type":"Feature", "geometry":{"type":"Point","coordinates":[109.04911433210815,34.268391787797434]}, "properties":{"typecode":"120302","wgs84_lat":"34.268391787797434","address":"东大明宫建材家居城附近","adname":"灞桥区","wgs84_lon":"109.04911433210815","pname":"陕西省","cityname":"西安市","gcj02_lat":"34.267101","name":"电力小区高层家属院","gcj02_lon":"109.054197","type":"商务住宅;住宅区;住宅小区"}}, {"type":"Feature", "geometry":{"type":"Point","coordinates":[109.05658671442815,34.27724191897528]}, "properties":{"typecode":"120302","wgs84_lat":"34.27724191897528","address":"纺建路201号","adname":"灞桥区","wgs84_lon":"109.05658671442815","pname":"陕西省","cityname":"西安市","gcj02_lat":"34.275968","name":"西北电建四公司西安基地","gcj02_lon":"109.061691","type":"商务住宅;住宅区;住宅小区"}}, {"type":"Feature", "geometry":{"type":"Point","coordinates":[109.06199154608119,34.27503968240287]}, "properties":{"typecode":"120302","wgs84_lat":"34.27503968240287","address":"纺织城街道纺一路中段","adname":"灞桥区","wgs84_lon":"109.06199154608119","pname":"陕西省","cityname":"西安市","gcj02_lat":"34.273773","name":"大华锦绣","gcj02_lon":"109.067109","type":"商务住宅;住宅区;住宅小区"}}, {"type":"Feature", "geometry":{"type":"Point","coordinates":[109.0635521176203,34.27332026911928]}, "properties":{"typecode":"120302","wgs84_lat":"34.27332026911928","address":"纺新街与纺一路交叉口东南100米","adname":"灞桥区","wgs84_lon":"109.0635521176203","pname":"陕西省","cityname":"西安市","gcj02_lat":"34.272055","name":"灞桥区土地局小区","gcj02_lon":"109.068673","type":"商务住宅;住宅区;住宅小区"}}, {"type":"Feature", "geometry":{"type":"Point","coordinates":[109.06343979284122,34.26846939793657]}, "properties":{"typecode":"120302","wgs84_lat":"34.26846939793657","address":"纺东街与纺科路交叉口北40米","adname":"灞桥区","wgs84_lon":"109.06343979284122","pname":"陕西省","cityname":"西安市","gcj02_lat":"34.267202","name":"西安液压件厂职工住宅楼","gcj02_lon":"109.068560","type":"商务住宅;住宅区;住宅小区"}}, {"type":"Feature", "geometry":{"type":"Point","coordinates":[109.06090424922593,34.27348086407278]}, "properties":{"typecode":"120302","wgs84_lat":"34.27348086407278","address":"纺东街与纺一路交叉口南60米","adname":"灞桥区","wgs84_lon":"109.06090424922593","pname":"陕西省","cityname":"西安市","gcj02_lat":"34.272212","name":"农行纺东小区","gcj02_lon":"109.066019","type":"商务住宅;住宅区;住宅小区"}}, {"type":"Feature", "geometry":{"type":"Point","coordinates":[109.05592564290572,34.26349260300656]}, "properties":{"typecode":"120302","wgs84_lat":"34.26349260300656","address":"纺织城西街与纺四路交叉口东南200米","adname":"灞桥区","wgs84_lon":"109.05592564290572","pname":"陕西省","cityname":"西安市","gcj02_lat":"34.262212","name":"四棉和谐小区","gcj02_lon":"109.061027","type":"商务住宅;住宅区;住宅小区"}}, {"type":"Feature", "geometry":{"type":"Point","coordinates":[109.0545790759783,34.2769553745161]}, "properties":{"typecode":"120302","wgs84_lat":"34.2769553745161","address":"纺织城纺建路205号(半坡地铁站D东北口步行390米)","adname":"灞桥区","wgs84_lon":"109.0545790759783","pname":"陕西省","cityname":"西安市","gcj02_lat":"34.275678","name":"西北电力建设器材总厂家属院","gcj02_lon":"109.059678","type":"商务住宅;住宅区;住宅小区"}}, {"type":"Feature", "geometry":{"type":"Point","coordinates":[109.06388541042074,34.27285502073369]}, "properties":{"typecode":"120302","wgs84_lat":"34.27285502073369","address":"纺新街与纺一路交叉口东南160米","adname":"灞桥区","wgs84_lon":"109.06388541042074","pname":"陕西省","cityname":"西安市","gcj02_lat":"34.271590","name":"文化小区","gcj02_lon":"109.069007","type":"商务住宅;住宅区;住宅小区"}}, {"type":"Feature", "geometry":{"type":"Point","coordinates":[109.06334949099394,34.274286141343275]}, "properties":{"typecode":"120302","wgs84_lat":"34.274286141343275","address":"纺一路51号","adname":"灞桥区","wgs84_lon":"109.06334949099394","pname":"陕西省","cityname":"西安市","gcj02_lat":"34.273021","name":"物资局综合楼","gcj02_lon":"109.068470","type":"商务住宅;住宅区;住宅小区"}}, {"type":"Feature", "geometry":{"type":"Point","coordinates":[109.06363619099116,34.2703023924537]}, "properties":{"typecode":"120302","wgs84_lat":"34.2703023924537","address":"纺三路6号","adname":"灞桥区","wgs84_lon":"109.06363619099116","pname":"陕西省","cityname":"西安市","gcj02_lat":"34.269036","name":"液压件厂小区","gcj02_lon":"109.068757","type":"商务住宅;住宅区;住宅小区"}}, {"type":"Feature", "geometry":{"type":"Point","coordinates":[109.06420563644221,34.27355731475411]}, "properties":{"typecode":"120302","wgs84_lat":"34.27355731475411","address":"纺一路100号","adname":"灞桥区","wgs84_lon":"109.06420563644221","pname":"陕西省","cityname":"西安市","gcj02_lat":"34.272293","name":"纺一路100号院","gcj02_lon":"109.069328","type":"商务住宅;住宅区;住宅小区"}}, {"type":"Feature", "geometry":{"type":"Point","coordinates":[109.0625163861169,34.2743782300083]}, "properties":{"typecode":"120302","wgs84_lat":"34.2743782300083","address":"纺新街与纺一路交叉口西北60米","adname":"灞桥区","wgs84_lon":"109.0625163861169","pname":"陕西省","cityname":"西安市","gcj02_lat":"34.273112","name":"电建四公司家属院东区","gcj02_lon":"109.067635","type":"商务住宅;住宅区;住宅小区"}}, {"type":"Feature", "geometry":{"type":"Point","coordinates":[109.06121423267122,34.27668209881704]}, "properties":{"typecode":"120302","wgs84_lat":"34.27668209881704","address":"新筑街道纺织城纺建路55中东200米","adname":"灞桥区","wgs84_lon":"109.06121423267122","pname":"陕西省","cityname":"西安市","gcj02_lat":"34.275415","name":"阳光香榭","gcj02_lon":"109.066330","type":"商务住宅;住宅区;住宅小区"}}, {"type":"Feature", "geometry":{"type":"Point","coordinates":[109.04472362552148,34.27041075511937]}, "properties":{"typecode":"120302","wgs84_lat":"34.27041075511937","address":"红旗街道半坡路电力机械厂","adname":"灞桥区","wgs84_lon":"109.04472362552148","pname":"陕西省","cityname":"西安市","gcj02_lat":"34.269112","name":"电力新坊西院","gcj02_lon":"109.049793","type":"商务住宅;住宅区;住宅小区"}}, {"type":"Feature", "geometry":{"type":"Point","coordinates":[109.06429273283594,34.27023156281689]}, "properties":{"typecode":"120302","wgs84_lat":"34.27023156281689","address":"纺三路与纺新街交叉口南80米","adname":"灞桥区","wgs84_lon":"109.06429273283594","pname":"陕西省","cityname":"西安市","gcj02_lat":"34.268966","name":"向民小区","gcj02_lon":"109.069415","type":"商务住宅;住宅区;住宅小区"}}, {"type":"Feature", "geometry":{"type":"Point","coordinates":[109.06472198897733,34.26791795126244]}, "properties":{"typecode":"120302","wgs84_lat":"34.26791795126244","address":"纺织城街道纺科路国棉四厂","adname":"灞桥区","wgs84_lon":"109.06472198897733","pname":"陕西省","cityname":"西安市","gcj02_lat":"34.266652","name":"振兴南区","gcj02_lon":"109.069845","type":"商务住宅;住宅区;住宅小区"}}, {"type":"Feature", "geometry":{"type":"Point","coordinates":[109.06531061772345,34.268963784534385]}, "properties":{"typecode":"120302","wgs84_lat":"34.268963784534385","address":"纺科路6号附近","adname":"灞桥区","wgs84_lon":"109.06531061772345","pname":"陕西省","cityname":"西安市","gcj02_lat":"34.267699","name":"灞桥公安分局家属院","gcj02_lon":"109.070435","type":"商务住宅;住宅区;住宅小区"}}, {"type":"Feature", "geometry":{"type":"Point","coordinates":[109.06380237819705,34.275360098610804]}, "properties":{"typecode":"120302","wgs84_lat":"34.275360098610804","address":"纺织城街道纺织城鹿原街","adname":"灞桥区","wgs84_lon":"109.06380237819705","pname":"陕西省","cityname":"西安市","gcj02_lat":"34.274096","name":"纺星2区","gcj02_lon":"109.068924","type":"商务住宅;住宅区;住宅小区"}}, {"type":"Feature", "geometry":{"type":"Point","coordinates":[109.06584338596753,34.26998371072003]}, "properties":{"typecode":"120302","wgs84_lat":"34.26998371072003","address":"纺织城街道纺三路","adname":"灞桥区","wgs84_lon":"109.06584338596753","pname":"陕西省","cityname":"西安市","gcj02_lat":"34.268720","name":"四棉厂住宅振兴区","gcj02_lon":"109.070969","type":"商务住宅;住宅区;住宅小区"}}, {"type":"Feature", "geometry":{"type":"Point","coordinates":[109.05608086574323,34.2677316419724]}, "properties":{"typecode":"120302","wgs84_lat":"34.2677316419724","address":"纺西街1709号","adname":"灞桥区","wgs84_lon":"109.05608086574323","pname":"陕西省","cityname":"西安市","gcj02_lat":"34.266453","name":"西北电力建设第四工程公司众华新区","gcj02_lon":"109.061183","type":"商务住宅;住宅区;住宅小区"}}, {"type":"Feature", "geometry":{"type":"Point","coordinates":[109.0637608350108,34.27117887048528]}, "properties":{"typecode":"120302","wgs84_lat":"34.27117887048528","address":"蔬菜公司家属院1栋","adname":"灞桥区","wgs84_lon":"109.0637608350108","pname":"陕西省","cityname":"西安市","gcj02_lat":"34.269913","name":"灞桥蔬菜公司家属院","gcj02_lon":"109.068882","type":"商务住宅;住宅区;住宅小区"}}, {"type":"Feature", "geometry":{"type":"Point","coordinates":[109.0646597865795,34.2718114460621]}, "properties":{"typecode":"120302","wgs84_lat":"34.2718114460621","address":"纺织城街道纺三路","adname":"灞桥区","wgs84_lon":"109.0646597865795","pname":"陕西省","cityname":"西安市","gcj02_lat":"34.270547","name":"四棉厂住宅自强区","gcj02_lon":"109.069783","type":"商务住宅;住宅区;住宅小区"}}, {"type":"Feature", "geometry":{"type":"Point","coordinates":[109.06402304337692,34.27354455756618]}, "properties":{"typecode":"120302","wgs84_lat":"34.27354455756618","address":"纺一路与纺新街交叉口东150米","adname":"灞桥区","wgs84_lon":"109.06402304337692","pname":"陕西省","cityname":"西安市","gcj02_lat":"34.272280","name":"纺一路一区小区","gcj02_lon":"109.069145","type":"商务住宅;住宅区;住宅小区"}}, {"type":"Feature", "geometry":{"type":"Point","coordinates":[109.04351554486952,34.26967259800447]}, "properties":{"typecode":"120302","wgs84_lat":"34.26967259800447","address":"半坡路电力机械厂家属院西侧(紧临东三环)","adname":"灞桥区","wgs84_lon":"109.04351554486952","pname":"陕西省","cityname":"西安市","gcj02_lat":"34.268371","name":"明林庭院","gcj02_lon":"109.048581","type":"商务住宅;住宅区;住宅小区"}}, {"type":"Feature", "geometry":{"type":"Point","coordinates":[109.04669007026088,34.26366045706254]}, "properties":{"typecode":"120302","wgs84_lat":"34.26366045706254","address":"浐灞半坡路中段(大明宫建材市场东郊店路南)","adname":"灞桥区","wgs84_lon":"109.04669007026088","pname":"陕西省","cityname":"西安市","gcj02_lat":"34.262363","name":"五星臻品","gcj02_lon":"109.051765","type":"商务住宅;住宅区;住宅小区"}}, {"type":"Feature", "geometry":{"type":"Point","coordinates":[109.06266486233596,34.27647016292801]}, "properties":{"typecode":"120302","wgs84_lat":"34.27647016292801","address":"纺新街与纺建路交叉口北40米","adname":"灞桥区","wgs84_lon":"109.06266486233596","pname":"陕西省","cityname":"西安市","gcj02_lat":"34.275205","name":"纺星社区","gcj02_lon":"109.067784","type":"商务住宅;住宅区;住宅小区"}}, {"type":"Feature", "geometry":{"type":"Point","coordinates":[109.0465134722161,34.26530615246815]}, "properties":{"typecode":"120302","wgs84_lat":"34.26530615246815","address":"半坡路与韩森东路交叉口北140米","adname":"灞桥区","wgs84_lon":"109.0465134722161","pname":"陕西省","cityname":"西安市","gcj02_lat":"34.264009","name":"絮棉厂家属院","gcj02_lon":"109.051588","type":"商务住宅;住宅区;住宅小区"}}, {"type":"Feature", "geometry":{"type":"Point","coordinates":[109.0623545849912,34.27638962153521]}, "properties":{"typecode":"120302","wgs84_lat":"34.27638962153521","address":"纺建路与纺新街交叉口西北40米","adname":"灞桥区","wgs84_lon":"109.0623545849912","pname":"陕西省","cityname":"西安市","gcj02_lat":"34.275124","name":"纺星一区","gcj02_lon":"109.067473","type":"商务住宅;住宅区;住宅小区"}}, {"type":"Feature", "geometry":{"type":"Point","coordinates":[109.06077983309802,34.27018839054301]}, "properties":{"typecode":"120302","wgs84_lat":"34.27018839054301","address":"纺织城纺三路","adname":"灞桥区","wgs84_lon":"109.06077983309802","pname":"陕西省","cityname":"西安市","gcj02_lat":"34.268918","name":"三棉社区","gcj02_lon":"109.065894","type":"商务住宅;住宅区;住宅小区"}}, {"type":"Feature", "geometry":{"type":"Point","coordinates":[109.06380477849872,34.27069700934855]}, "properties":{"typecode":"120302","wgs84_lat":"34.27069700934855","address":"纺三路26号","adname":"灞桥区","wgs84_lon":"109.06380477849872","pname":"陕西省","cityname":"西安市","gcj02_lat":"34.269431","name":"振兴小区","gcj02_lon":"109.068926","type":"商务住宅;住宅区;住宅小区"}}, {"type":"Feature", "geometry":{"type":"Point","coordinates":[109.06389803824156,34.276808373770116]}, "properties":{"typecode":"120302","wgs84_lat":"34.276808373770116","address":"纺建路9号","adname":"灞桥区","wgs84_lon":"109.06389803824156","pname":"陕西省","cityname":"西安市","gcj02_lat":"34.275545","name":"信合小区","gcj02_lon":"109.069020","type":"商务住宅;住宅区;住宅小区"}}, {"type":"Feature", "geometry":{"type":"Point","coordinates":[109.05296865213862,34.26366158648938]}, "properties":{"typecode":"120302","wgs84_lat":"34.26366158648938","address":"韩森东路与纺西街交汇处东南角","adname":"灞桥区","wgs84_lon":"109.05296865213862","pname":"陕西省","cityname":"西安市","gcj02_lat":"34.262376","name":"中海·云锦","gcj02_lon":"109.058062","type":"商务住宅;住宅区;住宅小区"}}, {"type":"Feature", "geometry":{"type":"Point","coordinates":[109.06476985210905,34.268286740921745]}, "properties":{"typecode":"120302","wgs84_lat":"34.268286740921745","address":"纺织城东街237号","adname":"灞桥区","wgs84_lon":"109.06476985210905","pname":"陕西省","cityname":"西安市","gcj02_lat":"34.267021","name":"西安市市内电话局纺织城分局家属院","gcj02_lon":"109.069893","type":"商务住宅;住宅区;住宅小区"}}, {"type":"Feature", "geometry":{"type":"Point","coordinates":[109.06507853564804,34.2756823232275]}, "properties":{"typecode":"120302","wgs84_lat":"34.2756823232275","address":"鹿塬街10号","adname":"灞桥区","wgs84_lon":"109.06507853564804","pname":"陕西省","cityname":"西安市","gcj02_lat":"34.274420","name":"庞塬街10号大院","gcj02_lon":"109.070203","type":"商务住宅;住宅区;住宅小区"}}, {"type":"Feature", "geometry":{"type":"Point","coordinates":[109.06652130937407,34.26589254641726]}, "properties":{"typecode":"120302","wgs84_lat":"34.26589254641726","address":"纺四路300号","adname":"灞桥区","wgs84_lon":"109.06652130937407","pname":"陕西省","cityname":"西安市","gcj02_lat":"34.264628","name":"枣园刘住宅小区","gcj02_lon":"109.071648","type":"商务住宅;住宅区;住宅小区"}}, {"type":"Feature", "geometry":{"type":"Point","coordinates":[109.06484509738345,34.275069871274724]}, "properties":{"typecode":"120302","wgs84_lat":"34.275069871274724","address":"鹿原街6号纺星二区","adname":"灞桥区","wgs84_lon":"109.06484509738345","pname":"陕西省","cityname":"西安市","gcj02_lat":"34.273807","name":"工商银行纺建小区家属院","gcj02_lon":"109.069969","type":"商务住宅;住宅区;住宅小区"}}, {"type":"Feature", "geometry":{"type":"Point","coordinates":[109.06644034893874,34.2673890395703]}, "properties":{"typecode":"120302","wgs84_lat":"34.2673890395703","address":"鹿塬街","adname":"灞桥区","wgs84_lon":"109.06644034893874","pname":"陕西省","cityname":"西安市","gcj02_lat":"34.266125","name":"林河世家","gcj02_lon":"109.071567","type":"商务住宅;住宅区;住宅小区"}}, {"type":"Feature", "geometry":{"type":"Point","coordinates":[109.06396866309561,34.26781396592795]}, "properties":{"typecode":"120302","wgs84_lat":"34.26781396592795","address":"纺织城坊东街","adname":"灞桥区","wgs84_lon":"109.06396866309561","pname":"陕西省","cityname":"西安市","gcj02_lat":"34.266547","name":"科研新村","gcj02_lon":"109.069090","type":"商务住宅;住宅区;住宅小区"}}, {"type":"Feature", "geometry":{"type":"Point","coordinates":[109.04587706236346,34.26973365287866]}, "properties":{"typecode":"120302","wgs84_lat":"34.26973365287866","address":"半坡路与陶埙路交叉口北320米","adname":"灞桥区","wgs84_lon":"109.04587706236346","pname":"陕西省","cityname":"西安市","gcj02_lat":"34.268437","name":"半坡社区","gcj02_lon":"109.050950","type":"商务住宅;住宅区;住宅小区"}}, {"type":"Feature", "geometry":{"type":"Point","coordinates":[109.066140263885,34.27563203192624]}, "properties":{"typecode":"120302","wgs84_lat":"34.27563203192624","address":"鹿塬街北段17号","adname":"灞桥区","wgs84_lon":"109.066140263885","pname":"陕西省","cityname":"西安市","gcj02_lat":"34.274371","name":"鹿塬街17号大院","gcj02_lon":"109.071267","type":"商务住宅;住宅区;住宅小区"}}, {"type":"Feature", "geometry":{"type":"Point","coordinates":[109.06514947046733,34.27466265492976]}, "properties":{"typecode":"120302","wgs84_lat":"34.27466265492976","address":"纺一路与鹿塬街交叉口西北100米","adname":"灞桥区","wgs84_lon":"109.06514947046733","pname":"陕西省","cityname":"西安市","gcj02_lat":"34.273400","name":"国家税务总局西安市灞桥区税务局家属院","gcj02_lon":"109.070274","type":"商务住宅;住宅区;住宅小区"}}, {"type":"Feature", "geometry":{"type":"Point","coordinates":[109.06336792940061,34.26876637319303]}, "properties":{"typecode":"120302","wgs84_lat":"34.26876637319303","address":"智翔广场","adname":"灞桥区","wgs84_lon":"109.06336792940061","pname":"陕西省","cityname":"西安市","gcj02_lat":"34.267499","name":"智翔花园","gcj02_lon":"109.068488","type":"商务住宅;住宅区;住宅小区"}}, {"type":"Feature", "geometry":{"type":"Point","coordinates":[109.04598037002489,34.27402168764158]}, "properties":{"typecode":"120302","wgs84_lat":"34.27402168764158","address":"半坡路与长乐东路辅路交叉口南280米","adname":"灞桥区","wgs84_lon":"109.04598037002489","pname":"陕西省","cityname":"西安市","gcj02_lat":"34.272727","name":"西安半坡博物馆家属院","gcj02_lon":"109.051054","type":"商务住宅;住宅区;住宅小区"}}, {"type":"Feature", "geometry":{"type":"Point","coordinates":[109.04436656181676,34.272686570639124]}, "properties":{"typecode":"120302","wgs84_lat":"34.272686570639124","address":"半坡路","adname":"灞桥区","wgs84_lon":"109.04436656181676","pname":"陕西省","cityname":"西安市","gcj02_lat":"34.271388","name":"西安市建筑构件厂家属院","gcj02_lon":"109.049435","type":"商务住宅;住宅区;住宅小区"}}, {"type":"Feature", "geometry":{"type":"Point","coordinates":[109.0583053219538,34.27705227353286]}, "properties":{"typecode":"120302|120303","wgs84_lat":"34.27705227353286","address":"纺织城街道新医路73号","adname":"灞桥区","wgs84_lon":"109.0583053219538","pname":"陕西省","cityname":"西安市","gcj02_lat":"34.275781","name":"五十五中家属院","gcj02_lon":"109.063414","type":"商务住宅;住宅区;住宅小区|商务住宅;住宅区;宿舍"}}, {"type":"Feature", "geometry":{"type":"Point","coordinates":[109.0650426174287,34.275639386225116]}, "properties":{"typecode":"120302","wgs84_lat":"34.275639386225116","address":"鹿塬街10号","adname":"灞桥区","wgs84_lon":"109.0650426174287","pname":"陕西省","cityname":"西安市","gcj02_lat":"34.274377","name":"鹿塬街10号大院","gcj02_lon":"109.070167","type":"商务住宅;住宅区;住宅小区"}}, {"type":"Feature", "geometry":{"type":"Point","coordinates":[109.04448595057194,34.27536821708865]}, "properties":{"typecode":"120302","wgs84_lat":"34.27536821708865","address":"半坡路4号(半坡地铁站A西北口步行500米)","adname":"灞桥区","wgs84_lon":"109.04448595057194","pname":"陕西省","cityname":"西安市","gcj02_lat":"34.274071","name":"西安浐河化工厂家属院","gcj02_lon":"109.049555","type":"商务住宅;住宅区;住宅小区"}}, {"type":"Feature", "geometry":{"type":"Point","coordinates":[109.06466849846868,34.2634088340998]}, "properties":{"typecode":"120302","wgs84_lat":"34.2634088340998","address":"纺织城东街165号","adname":"灞桥区","wgs84_lon":"109.06466849846868","pname":"陕西省","cityname":"西安市","gcj02_lat":"34.262141","name":"纺医小区","gcj02_lon":"109.069791","type":"商务住宅;住宅区;住宅小区"}}, {"type":"Feature", "geometry":{"type":"Point","coordinates":[109.06739366803161,34.2754686142405]}, "properties":{"typecode":"120302","wgs84_lat":"34.2754686142405","address":"纺渭路64号","adname":"灞桥区","wgs84_lon":"109.06739366803161","pname":"陕西省","cityname":"西安市","gcj02_lat":"34.274209","name":"海棠华府","gcj02_lon":"109.072523","type":"商务住宅;住宅区;住宅小区"}}, {"type":"Feature", "geometry":{"type":"Point","coordinates":[109.05406918838173,34.25705828511035]}, "properties":{"typecode":"120302","wgs84_lat":"34.25705828511035","address":"纺织城西街108号","adname":"灞桥区","wgs84_lon":"109.05406918838173","pname":"陕西省","cityname":"西安市","gcj02_lat":"34.255772","name":"中国中铁·缤纷新城","gcj02_lon":"109.059165","type":"商务住宅;住宅区;住宅小区"}}, {"type":"Feature", "geometry":{"type":"Point","coordinates":[109.05376232049666,34.253695132513776]}, "properties":{"typecode":"120302","wgs84_lat":"34.253695132513776","address":"纺南路1号","adname":"灞桥区","wgs84_lon":"109.05376232049666","pname":"陕西省","cityname":"西安市","gcj02_lat":"34.252407","name":"延河西区","gcj02_lon":"109.058857","type":"商务住宅;住宅区;住宅小区"}}, {"type":"Feature", "geometry":{"type":"Point","coordinates":[109.05719595386945,34.256283399463534]}, "properties":{"typecode":"120302","wgs84_lat":"34.256283399463534","address":"纺织城纺八路","adname":"灞桥区","wgs84_lon":"109.05719595386945","pname":"陕西省","cityname":"西安市","gcj02_lat":"34.255002","name":"平等小区","gcj02_lon":"109.062300","type":"商务住宅;住宅区;住宅小区"}}, {"type":"Feature", "geometry":{"type":"Point","coordinates":[109.06198204008889,34.25810852636409]}, "properties":{"typecode":"120302","wgs84_lat":"34.25810852636409","address":"纺织城五厂","adname":"灞桥区","wgs84_lon":"109.06198204008889","pname":"陕西省","cityname":"西安市","gcj02_lat":"34.256835","name":"东江花园","gcj02_lon":"109.067098","type":"商务住宅;住宅区;住宅小区"}}, {"type":"Feature", "geometry":{"type":"Point","coordinates":[109.05669239634054,34.25468983218074]}, "properties":{"typecode":"120302","wgs84_lat":"34.25468983218074","address":"纺八路与纺织城西街交叉口东南约140米","adname":"灞桥区","wgs84_lon":"109.05669239634054","pname":"陕西省","cityname":"西安市","gcj02_lat":"34.253407","name":"六棉自由区","gcj02_lon":"109.061795","type":"商务住宅;住宅区;住宅小区"}}, {"type":"Feature", "geometry":{"type":"Point","coordinates":[109.05600523062594,34.25429610642588]}, "properties":{"typecode":"120302","wgs84_lat":"34.25429610642588","address":"纺九路","adname":"灞桥区","wgs84_lon":"109.05600523062594","pname":"陕西省","cityname":"西安市","gcj02_lat":"34.253012","name":"六棉安置小区","gcj02_lon":"109.061106","type":"商务住宅;住宅区;住宅小区"}}, {"type":"Feature", "geometry":{"type":"Point","coordinates":[109.05933470049601,34.25462573153486]}, "properties":{"typecode":"120302","wgs84_lat":"34.25462573153486","address":"纺九路1号","adname":"灞桥区","wgs84_lon":"109.05933470049601","pname":"陕西省","cityname":"西安市","gcj02_lat":"34.253347","name":"红旗小区","gcj02_lon":"109.064444","type":"商务住宅;住宅区;住宅小区"}}, {"type":"Feature", "geometry":{"type":"Point","coordinates":[109.05548067610812,34.25365522476419]}, "properties":{"typecode":"120302","wgs84_lat":"34.25365522476419","address":"纺南路1号","adname":"灞桥区","wgs84_lon":"109.05548067610812","pname":"陕西省","cityname":"西安市","gcj02_lat":"34.252370","name":"延河中区","gcj02_lon":"109.060580","type":"商务住宅;住宅区;住宅小区"}}, {"type":"Feature", "geometry":{"type":"Point","coordinates":[109.06036070396185,34.26026498872215]}, "properties":{"typecode":"120302","wgs84_lat":"34.26026498872215","address":"纺织城街道纺五路","adname":"灞桥区","wgs84_lon":"109.06036070396185","pname":"陕西省","cityname":"西安市","gcj02_lat":"34.258990","name":"金纺佳苑","gcj02_lon":"109.065473","type":"商务住宅;住宅区;住宅小区"}}, {"type":"Feature", "geometry":{"type":"Point","coordinates":[109.05954703490899,34.25626577057323]}, "properties":{"typecode":"120302","wgs84_lat":"34.25626577057323","address":"纺八路与纺织城正街交叉口东北140米","adname":"灞桥区","wgs84_lon":"109.05954703490899","pname":"陕西省","cityname":"西安市","gcj02_lat":"34.254988","name":"六棉前进小区","gcj02_lon":"109.064657","type":"商务住宅;住宅区;住宅小区"}}, {"type":"Feature", "geometry":{"type":"Point","coordinates":[109.04284856701393,34.259636052298745]}, "properties":{"typecode":"120302","wgs84_lat":"34.259636052298745","address":"浐河东路4567号","adname":"灞桥区","wgs84_lon":"109.04284856701393","pname":"陕西省","cityname":"西安市","gcj02_lat":"34.258329","name":"檀香园小区","gcj02_lon":"109.047911","type":"商务住宅;住宅区;住宅小区"}}, {"type":"Feature", "geometry":{"type":"Point","coordinates":[109.0491818694925,34.25986907419883]}, "properties":{"typecode":"120302","wgs84_lat":"34.25986907419883","address":"五星村","adname":"灞桥区","wgs84_lon":"109.0491818694925","pname":"陕西省","cityname":"西安市","gcj02_lat":"34.258575","name":"五星公寓","gcj02_lon":"109.054264","type":"商务住宅;住宅区;住宅小区"}}, {"type":"Feature", "geometry":{"type":"Point","coordinates":[109.05892584031793,34.253174916495446]}, "properties":{"typecode":"120302","wgs84_lat":"34.253174916495446","address":"纺南路1号","adname":"灞桥区","wgs84_lon":"109.05892584031793","pname":"陕西省","cityname":"西安市","gcj02_lat":"34.251895","name":"延河东区","gcj02_lon":"109.064034","type":"商务住宅;住宅区;住宅小区"}}, {"type":"Feature", "geometry":{"type":"Point","coordinates":[109.05931008729759,34.2623877043354]}, "properties":{"typecode":"120302","wgs84_lat":"34.2623877043354","address":"纺织城正街","adname":"灞桥区","wgs84_lon":"109.05931008729759","pname":"陕西省","cityname":"西安市","gcj02_lat":"34.261112","name":"商贸局家属院","gcj02_lon":"109.064420","type":"商务住宅;住宅区;住宅小区"}}, {"type":"Feature", "geometry":{"type":"Point","coordinates":[109.05179572986673,34.25468523756213]}, "properties":{"typecode":"120302","wgs84_lat":"34.25468523756213","address":"半坡路151号","adname":"灞桥区","wgs84_lon":"109.05179572986673","pname":"陕西省","cityname":"西安市","gcj02_lat":"34.253394","name":"一璟苑小区","gcj02_lon":"109.056885","type":"商务住宅;住宅区;住宅小区"}}, {"type":"Feature", "geometry":{"type":"Point","coordinates":[109.06365250480826,34.25477156909912]}, "properties":{"typecode":"120302","wgs84_lat":"34.25477156909912","address":"纺织城纺九路","adname":"灞桥区","wgs84_lon":"109.06365250480826","pname":"陕西省","cityname":"西安市","gcj02_lat":"34.253499","name":"东城尚景","gcj02_lon":"109.068772","type":"商务住宅;住宅区;住宅小区"}}, {"type":"Feature", "geometry":{"type":"Point","coordinates":[109.05737100934427,34.261976869347386]}, "properties":{"typecode":"120302","wgs84_lat":"34.261976869347386","address":"纺五路与纺织城西街交叉口东北100米","adname":"灞桥区","wgs84_lon":"109.05737100934427","pname":"陕西省","cityname":"西安市","gcj02_lat":"34.260698","name":"五环社区民主坊","gcj02_lon":"109.062476","type":"商务住宅;住宅区;住宅小区"}}, {"type":"Feature", "geometry":{"type":"Point","coordinates":[109.059338044028,34.26209078061961]}, "properties":{"typecode":"120302","wgs84_lat":"34.26209078061961","address":"纺织城街道西安市东郊纺织城","adname":"灞桥区","wgs84_lon":"109.059338044028","pname":"陕西省","cityname":"西安市","gcj02_lat":"34.260815","name":"万方公寓","gcj02_lon":"109.064448","type":"商务住宅;住宅区;住宅小区"}}, {"type":"Feature", "geometry":{"type":"Point","coordinates":[109.0593190640789,34.26239968602897]}, "properties":{"typecode":"120302","wgs84_lat":"34.26239968602897","address":"纺织城正街与纺五路交叉口西北80米","adname":"灞桥区","wgs84_lon":"109.0593190640789","pname":"陕西省","cityname":"西安市","gcj02_lat":"34.261124","name":"大信小区","gcj02_lon":"109.064429","type":"商务住宅;住宅区;住宅小区"}}, {"type":"Feature", "geometry":{"type":"Point","coordinates":[109.05778124785579,34.25865753807592]}, "properties":{"typecode":"120302","wgs84_lat":"34.25865753807592","address":"纺织城西街138号附近","adname":"灞桥区","wgs84_lon":"109.05778124785579","pname":"陕西省","cityname":"西安市","gcj02_lat":"34.257378","name":"五环集团民主区","gcj02_lon":"109.062887","type":"商务住宅;住宅区;住宅小区"}}, {"type":"Feature", "geometry":{"type":"Point","coordinates":[109.04586949569469,34.25342416089471]}, "properties":{"typecode":"120302","wgs84_lat":"34.25342416089471","address":"咸宁东路99号","adname":"灞桥区","wgs84_lon":"109.04586949569469","pname":"陕西省","cityname":"西安市","gcj02_lat":"34.252121","name":"红旗街道办家属院","gcj02_lon":"109.050941","type":"商务住宅;住宅区;住宅小区"}}, {"type":"Feature", "geometry":{"type":"Point","coordinates":[109.06421762996492,34.26183004445481]}, "properties":{"typecode":"120302","wgs84_lat":"34.26183004445481","address":"纺织城纺五路49号","adname":"灞桥区","wgs84_lon":"109.06421762996492","pname":"陕西省","cityname":"西安市","gcj02_lat":"34.260561","name":"枣园苏商住楼","gcj02_lon":"109.069339","type":"商务住宅;住宅区;住宅小区"}}, {"type":"Feature", "geometry":{"type":"Point","coordinates":[109.04479330628213,34.25998180203063]}, "properties":{"typecode":"120302","wgs84_lat":"34.25998180203063","address":"东三环(檀香园小区东门旁)","adname":"灞桥区","wgs84_lon":"109.04479330628213","pname":"陕西省","cityname":"西安市","gcj02_lat":"34.258679","name":"河畔公馆","gcj02_lon":"109.049862","type":"商务住宅;住宅区;住宅小区"}}, {"type":"Feature", "geometry":{"type":"Point","coordinates":[109.04449929937431,34.25926869754182]}, "properties":{"typecode":"120302","wgs84_lat":"34.25926869754182","address":"东三环4396号","adname":"灞桥区","wgs84_lon":"109.04449929937431","pname":"陕西省","cityname":"西安市","gcj02_lat":"34.257965","name":"网二小区","gcj02_lon":"109.049567","type":"商务住宅;住宅区;住宅小区"}}, {"type":"Feature", "geometry":{"type":"Point","coordinates":[109.0433201356073,34.258542474898995]}, "properties":{"typecode":"120302","wgs84_lat":"34.258542474898995","address":"西安市灞桥区浐河东路齐力铁路学校南50米","adname":"灞桥区","wgs84_lon":"109.0433201356073","pname":"陕西省","cityname":"西安市","gcj02_lat":"34.257236","name":"里城柳岸十里","gcj02_lon":"109.048384","type":"商务住宅;住宅区;住宅小区"}}, {"type":"Feature", "geometry":{"type":"Point","coordinates":[109.0653712745762,34.25990934069935]}, "properties":{"typecode":"120302","wgs84_lat":"34.25990934069935","address":"纺织城纺五路","adname":"灞桥区","wgs84_lon":"109.0653712745762","pname":"陕西省","cityname":"西安市","gcj02_lat":"34.258641","name":"五环节约坊","gcj02_lon":"109.070495","type":"商务住宅;住宅区;住宅小区"}}, {"type":"Feature", "geometry":{"type":"Point","coordinates":[109.05338463276202,34.25056300650532]}, "properties":{"typecode":"120302","wgs84_lat":"34.25056300650532","address":"咸宁东路606号","adname":"灞桥区","wgs84_lon":"109.05338463276202","pname":"陕西省","cityname":"西安市","gcj02_lat":"34.249273","name":"中国铁建花语城","gcj02_lon":"109.058478","type":"商务住宅;住宅区;住宅小区"}}, {"type":"Feature", "geometry":{"type":"Point","coordinates":[109.06428186518978,34.2574886804146]}, "properties":{"typecode":"120302","wgs84_lat":"34.2574886804146","address":"纺织城东街8号","adname":"灞桥区","wgs84_lon":"109.06428186518978","pname":"陕西省","cityname":"西安市","gcj02_lat":"34.256218","name":"六棉光明小区","gcj02_lon":"109.069403","type":"商务住宅;住宅区;住宅小区"}}, {"type":"Feature", "geometry":{"type":"Point","coordinates":[109.04251647304616,34.261653966908064]}, "properties":{"typecode":"120302","wgs84_lat":"34.261653966908064","address":"东三环入口与东三环交叉口西南200米","adname":"灞桥区","wgs84_lon":"109.04251647304616","pname":"陕西省","cityname":"西安市","gcj02_lat":"34.260347","name":"广厦水岸东方三期","gcj02_lon":"109.047578","type":"商务住宅;住宅区;住宅小区"}}, {"type":"Feature", "geometry":{"type":"Point","coordinates":[109.06592088933574,34.262302710903754]}, "properties":{"typecode":"120302","wgs84_lat":"34.262302710903754","address":"鹿原街南段26号","adname":"灞桥区","wgs84_lon":"109.06592088933574","pname":"陕西省","cityname":"西安市","gcj02_lat":"34.261036","name":"白鹿花园","gcj02_lon":"109.071046","type":"商务住宅;住宅区;住宅小区"}}, {"type":"Feature", "geometry":{"type":"Point","coordinates":[109.06666433352233,34.26217786420598]}, "properties":{"typecode":"120302","wgs84_lat":"34.26217786420598","address":"纺纪街与纺五路交叉口东北100米","adname":"灞桥区","wgs84_lon":"109.06666433352233","pname":"陕西省","cityname":"西安市","gcj02_lat":"34.260912","name":"十八中小区","gcj02_lon":"109.071791","type":"商务住宅;住宅区;住宅小区"}}, {"type":"Feature", "geometry":{"type":"Point","coordinates":[109.0672192162026,34.261800361383784]}, "properties":{"typecode":"120302","wgs84_lat":"34.261800361383784","address":"鹿塬街9号","adname":"灞桥区","wgs84_lon":"109.0672192162026","pname":"陕西省","cityname":"西安市","gcj02_lat":"34.260535","name":"枣园小区","gcj02_lon":"109.072347","type":"商务住宅;住宅区;住宅小区"}}, {"type":"Feature", "geometry":{"type":"Point","coordinates":[109.05284473631377,34.24359262613592]}, "properties":{"typecode":"120302","wgs84_lat":"34.24359262613592","address":"半引路与穆将王街交叉口东120米","adname":"灞桥区","wgs84_lon":"109.05284473631377","pname":"陕西省","cityname":"西安市","gcj02_lat":"34.242299","name":"翠园小区","gcj02_lon":"109.057936","type":"商务住宅;住宅区;住宅小区"}}, {"type":"Feature", "geometry":{"type":"Point","coordinates":[109.05224632678626,34.24461130730446]}, "properties":{"typecode":"120302","wgs84_lat":"34.24461130730446","address":"纺南路与半引路什字(近咸宁东路)","adname":"灞桥区","wgs84_lon":"109.05224632678626","pname":"陕西省","cityname":"西安市","gcj02_lat":"34.243317","name":"国际幸福城","gcj02_lon":"109.057336","type":"商务住宅;住宅区;住宅小区"}}, {"type":"Feature", "geometry":{"type":"Point","coordinates":[109.05063788256795,34.24508406822889]}, "properties":{"typecode":"120302","wgs84_lat":"34.24508406822889","address":"东三环辅路与云霞巷交叉口东160米","adname":"灞桥区","wgs84_lon":"109.05063788256795","pname":"陕西省","cityname":"西安市","gcj02_lat":"34.243787","name":"滨河小区","gcj02_lon":"109.055723","type":"商务住宅;住宅区;住宅小区"}}, {"type":"Feature", "geometry":{"type":"Point","coordinates":[109.05345491458534,34.24506799125235]}, "properties":{"typecode":"120302","wgs84_lat":"34.24506799125235","address":"纺南路与半引路","adname":"灞桥区","wgs84_lon":"109.05345491458534","pname":"陕西省","cityname":"西安市","gcj02_lat":"34.243776","name":"穆将王小区","gcj02_lon":"109.058548","type":"商务住宅;住宅区;住宅小区"}}, {"type":"Feature", "geometry":{"type":"Point","coordinates":[109.05853041062271,34.24647210706426]}, "properties":{"typecode":"120302","wgs84_lat":"34.24647210706426","address":"狄寨路3280号","adname":"灞桥区","wgs84_lon":"109.05853041062271","pname":"陕西省","cityname":"西安市","gcj02_lat":"34.245189","name":"西安公交鹿苑小区","gcj02_lon":"109.063637","type":"商务住宅;住宅区;住宅小区"}}, {"type":"Feature", "geometry":{"type":"Point","coordinates":[109.05183540147439,34.245627661916714]}, "properties":{"typecode":"120302","wgs84_lat":"34.245627661916714","address":"半引路与穆将王街交叉口北220米","adname":"灞桥区","wgs84_lon":"109.05183540147439","pname":"陕西省","cityname":"西安市","gcj02_lat":"34.244333","name":"穆将王社区","gcj02_lon":"109.056924","type":"商务住宅;住宅区;住宅小区"}}, {"type":"Feature", "geometry":{"type":"Point","coordinates":[109.04773588075061,34.24047437241115]}, "properties":{"typecode":"120302","wgs84_lat":"34.24047437241115","address":"东三环与云溪巷交汇处西北角","adname":"灞桥区","wgs84_lon":"109.04773588075061","pname":"陕西省","cityname":"西安市","gcj02_lat":"34.239170","name":"当代境MOMΛ(建设中)","gcj02_lon":"109.052812","type":"商务住宅;住宅区;住宅小区"}}, {"type":"Feature", "geometry":{"type":"Point","coordinates":[109.05063688994042,34.24503208986445]}, "properties":{"typecode":"120302","wgs84_lat":"34.24503208986445","address":"半引路与穆将王街交叉口北150米","adname":"灞桥区","wgs84_lon":"109.05063688994042","pname":"陕西省","cityname":"西安市","gcj02_lat":"34.243735","name":"滨河明珠","gcj02_lon":"109.055722","type":"商务住宅;住宅区;住宅小区"}}, {"type":"Feature", "geometry":{"type":"Point","coordinates":[109.04728049861353,34.24934489804103]}, "properties":{"typecode":"120302","wgs84_lat":"34.24934489804103","address":"东三环辅路附近","adname":"灞桥区","wgs84_lon":"109.04728049861353","pname":"陕西省","cityname":"西安市","gcj02_lat":"34.248043","name":"化工厂家属院","gcj02_lon":"109.052356","type":"商务住宅;住宅区;住宅小区"}}, {"type":"Feature", "geometry":{"type":"Point","coordinates":[109.0428544795826,34.237247642873236]}, "properties":{"typecode":"120302","wgs84_lat":"34.237247642873236","address":"浐河西路","adname":"雁塔区","wgs84_lon":"109.0428544795826","pname":"陕西省","cityname":"西安市","gcj02_lat":"34.235932","name":"海伦湾","gcj02_lon":"109.047915","type":"商务住宅;住宅区;住宅小区"}}, {"type":"Feature", "geometry":{"type":"Point","coordinates":[109.04738428230347,34.24818713710853]}, "properties":{"typecode":"120302","wgs84_lat":"34.24818713710853","address":"东三环路穆将王立交西南角100米","adname":"灞桥区","wgs84_lon":"109.04738428230347","pname":"陕西省","cityname":"西安市","gcj02_lat":"34.246885","name":"浐河生态小区","gcj02_lon":"109.052460","type":"商务住宅;住宅区;住宅小区"}}, {"type":"Feature", "geometry":{"type":"Point","coordinates":[109.04271022225579,34.24566278046098]}, "properties":{"typecode":"120302","wgs84_lat":"34.24566278046098","address":"河滨大道西100米","adname":"雁塔区","wgs84_lon":"109.04271022225579","pname":"陕西省","cityname":"西安市","gcj02_lat":"34.244350","name":"暖山·西安","gcj02_lon":"109.047771","type":"商务住宅;住宅区;住宅小区"}}, {"type":"Feature", "geometry":{"type":"Point","coordinates":[109.04270399997655,34.24847371783874]}, "properties":{"typecode":"120302","wgs84_lat":"34.24847371783874","address":"咸宁东路","adname":"雁塔区","wgs84_lon":"109.04270399997655","pname":"陕西省","cityname":"西安市","gcj02_lat":"34.247162","name":"堤柳花园","gcj02_lon":"109.047765","type":"商务住宅;住宅区;住宅小区"}}, {"type":"Feature", "geometry":{"type":"Point","coordinates":[109.06692078204183,34.23939037223441]}, "properties":{"typecode":"120302","wgs84_lat":"34.23939037223441","address":"红旗街道狄寨西路","adname":"灞桥区","wgs84_lon":"109.06692078204183","pname":"陕西省","cityname":"西安市","gcj02_lat":"34.238116","name":"向阳沟小区","gcj02_lon":"109.072046","type":"商务住宅;住宅区;住宅小区"}}, {"type":"Feature", "geometry":{"type":"Point","coordinates":[109.05017451832701,34.23018249510582]}, "properties":{"typecode":"120302","wgs84_lat":"34.23018249510582","address":"东三环南段","adname":"灞桥区","wgs84_lon":"109.05017451832701","pname":"陕西省","cityname":"西安市","gcj02_lat":"34.228879","name":"合能十里锦绣","gcj02_lon":"109.055257","type":"商务住宅;住宅区;住宅小区"}}, {"type":"Feature", "geometry":{"type":"Point","coordinates":[109.04808618586138,34.22469149399171]}, "properties":{"typecode":"120302","wgs84_lat":"34.22469149399171","address":"东三环辅路西50米","adname":"灞桥区","wgs84_lon":"109.04808618586138","pname":"陕西省","cityname":"西安市","gcj02_lat":"34.223382","name":"高科麓湾","gcj02_lon":"109.053162","type":"商务住宅;住宅区;住宅小区"}}, {"type":"Feature", "geometry":{"type":"Point","coordinates":[109.04663612584471,34.23022136544966]}, "properties":{"typecode":"120302","wgs84_lat":"34.23022136544966","address":"东三环与东三环出口交叉口西北220米","adname":"灞桥区","wgs84_lon":"109.04663612584471","pname":"陕西省","cityname":"西安市","gcj02_lat":"34.228911","name":"高科麓湾国际社区2期","gcj02_lon":"109.051708","type":"商务住宅;住宅区;住宅小区"}}, {"type":"Feature", "geometry":{"type":"Point","coordinates":[109.04646724453134,34.2232942156922]}, "properties":{"typecode":"120302","wgs84_lat":"34.2232942156922","address":"云淙巷与浐河东路交叉口东南200米","adname":"灞桥区","wgs84_lon":"109.04646724453134","pname":"陕西省","cityname":"西安市","gcj02_lat":"34.221981","name":"高科麓湾4期","gcj02_lon":"109.051538","type":"商务住宅;住宅区;住宅小区"}}, {"type":"Feature", "geometry":{"type":"Point","coordinates":[109.02796013116762,34.3421601473943]}, "properties":{"typecode":"120302","wgs84_lat":"34.3421601473943","address":"欧亚大道与灞河东路交汇处西北角","adname":"灞桥区","wgs84_lon":"109.02796013116762","pname":"陕西省","cityname":"西安市","gcj02_lat":"34.340854","name":"恒大御景","gcj02_lon":"109.032977","type":"商务住宅;住宅区;住宅小区"}}, {"type":"Feature", "geometry":{"type":"Point","coordinates":[109.02891267859621,34.340350559715084]}, "properties":{"typecode":"120302","wgs84_lat":"34.340350559715084","address":"展兴路会展二路口","adname":"灞桥区","wgs84_lon":"109.02891267859621","pname":"陕西省","cityname":"西安市","gcj02_lat":"34.339046","name":"世园林曦(建设中)","gcj02_lon":"109.033933","type":"商务住宅;住宅区;住宅小区"}}, {"type":"Feature", "geometry":{"type":"Point","coordinates":[109.02702438222053,34.34589775734428]}, "properties":{"typecode":"120302","wgs84_lat":"34.34589775734428","address":"欧亚大道东段1501号","adname":"灞桥区","wgs84_lon":"109.02702438222053","pname":"陕西省","cityname":"西安市","gcj02_lat":"34.344591","name":"湾流","gcj02_lon":"109.032038","type":"商务住宅;住宅区;住宅小区"}}, {"type":"Feature", "geometry":{"type":"Point","coordinates":[109.03091992207294,34.343249004627054]}, "properties":{"typecode":"120302","wgs84_lat":"34.343249004627054","address":"浐灞生态区会展三路南侧","adname":"灞桥区","wgs84_lon":"109.03091992207294","pname":"陕西省","cityname":"西安市","gcj02_lat":"34.341951","name":"世园林逸","gcj02_lon":"109.035948","type":"商务住宅;住宅区;住宅小区"}}, {"type":"Feature", "geometry":{"type":"Point","coordinates":[109.02453026692054,34.34318474448256]}, "properties":{"typecode":"120302","wgs84_lat":"34.34318474448256","address":"欧亚大道3650号","adname":"灞桥区","wgs84_lon":"109.02453026692054","pname":"陕西省","cityname":"西安市","gcj02_lat":"34.341870","name":"湾流阔景","gcj02_lon":"109.029534","type":"商务住宅;住宅区;住宅小区"}}, {"type":"Feature", "geometry":{"type":"Point","coordinates":[109.02494364137694,34.34333955606517]}, "properties":{"typecode":"120302","wgs84_lat":"34.34333955606517","address":"欧亚大道与会展一路辅路交叉口东北180米","adname":"灞桥区","wgs84_lon":"109.02494364137694","pname":"陕西省","cityname":"西安市","gcj02_lat":"34.342026","name":"滨水良居","gcj02_lon":"109.029949","type":"商务住宅;住宅区;住宅小区"}}, {"type":"Feature", "geometry":{"type":"Point","coordinates":[109.02294323938598,34.34623754324252]}, "properties":{"typecode":"120302","wgs84_lat":"34.34623754324252","address":"世博大道","adname":"灞桥区","wgs84_lon":"109.02294323938598","pname":"陕西省","cityname":"西安市","gcj02_lat":"34.344920","name":"万科澜岸","gcj02_lon":"109.027941","type":"商务住宅;住宅区;住宅小区"}}, {"type":"Feature", "geometry":{"type":"Point","coordinates":[109.02971329302058,34.32147550810551]}, "properties":{"typecode":"120302","wgs84_lat":"34.32147550810551","address":"东湖路与浐河交汇处200米","adname":"未央区","wgs84_lon":"109.02971329302058","pname":"陕西省","cityname":"西安市","gcj02_lat":"34.320164","name":"浐灞半岛","gcj02_lon":"109.034735","type":"商务住宅;住宅区;住宅小区"}}, {"type":"Feature", "geometry":{"type":"Point","coordinates":[109.02967716169837,34.32457515072442]}, "properties":{"typecode":"120302","wgs84_lat":"34.32457515072442","address":"辛家庙街道金茂一路浐灞半岛A3-10","adname":"未央区","wgs84_lon":"109.02967716169837","pname":"陕西省","cityname":"西安市","gcj02_lat":"34.323265","name":"自然界·忘岳","gcj02_lon":"109.034699","type":"商务住宅;住宅区;住宅小区"}}, {"type":"Feature", "geometry":{"type":"Point","coordinates":[109.03355503303585,34.32286422135962]}, "properties":{"typecode":"120302","wgs84_lat":"34.32286422135962","address":"金茂一路与金桥六路交叉口北150米","adname":"未央区","wgs84_lon":"109.03355503303585","pname":"陕西省","cityname":"西安市","gcj02_lat":"34.321563","name":"浐灞半岛A13区","gcj02_lon":"109.038591","type":"商务住宅;住宅区;住宅小区"}}, {"type":"Feature", "geometry":{"type":"Point","coordinates":[109.02485090137152,34.321225397052366]}, "properties":{"typecode":"120302","wgs84_lat":"34.321225397052366","address":"灞柳一路与金茂一路交叉口西200米","adname":"未央区","wgs84_lon":"109.02485090137152","pname":"陕西省","cityname":"西安市","gcj02_lat":"34.319901","name":"中新浐灞半岛A5紫陌佳域","gcj02_lon":"109.029854","type":"商务住宅;住宅区;住宅小区"}}, {"type":"Feature", "geometry":{"type":"Point","coordinates":[109.01965584501224,34.3289810190114]}, "properties":{"typecode":"120302","wgs84_lat":"34.3289810190114","address":"灞桥街道浐灞半岛","adname":"未央区","wgs84_lon":"109.01965584501224","pname":"陕西省","cityname":"西安市","gcj02_lat":"34.327646","name":"自然界","gcj02_lon":"109.024639","type":"商务住宅;住宅区;住宅小区"}}, {"type":"Feature", "geometry":{"type":"Point","coordinates":[109.03688145434823,34.320105515640144]}, "properties":{"typecode":"120302","wgs84_lat":"34.320105515640144","address":"金茂一路与浐灞大道交叉口北80米","adname":"灞桥区","wgs84_lon":"109.03688145434823","pname":"陕西省","cityname":"西安市","gcj02_lat":"34.318811","name":"冠寓公寓","gcj02_lon":"109.041929","type":"商务住宅;住宅区;住宅小区"}}, {"type":"Feature", "geometry":{"type":"Point","coordinates":[109.03111696213148,34.31108571476929]}, "properties":{"typecode":"120302","wgs84_lat":"34.31108571476929","address":"广安路(桃花潭东20米)","adname":"灞桥区","wgs84_lon":"109.03111696213148","pname":"陕西省","cityname":"西安市","gcj02_lat":"34.309773","name":"振业泊墅","gcj02_lon":"109.036143","type":"商务住宅;住宅区;住宅小区"}}, {"type":"Feature", "geometry":{"type":"Point","coordinates":[109.0353057986521,34.31084750617823]}, "properties":{"typecode":"120302","wgs84_lat":"34.31084750617823","address":"广安路800号","adname":"灞桥区","wgs84_lon":"109.0353057986521","pname":"陕西省","cityname":"西安市","gcj02_lat":"34.309545","name":"振业·泊公馆","gcj02_lon":"109.040347","type":"商务住宅;住宅区;住宅小区"}}, {"type":"Feature", "geometry":{"type":"Point","coordinates":[109.03708418120276,34.3150833567381]}, "properties":{"typecode":"190108|120302","wgs84_lat":"34.3150833567381","address":"灞桥区","adname":"灞桥区","wgs84_lon":"109.03708418120276","pname":"陕西省","cityname":"西安市","gcj02_lat":"34.313787","name":"安邸村","gcj02_lon":"109.042132","type":"地名地址信息;普通地名;村庄级地名|商务住宅;住宅区;住宅小区"}}, {"type":"Feature", "geometry":{"type":"Point","coordinates":[109.03191845786915,34.31748477384633]}, "properties":{"typecode":"120302","wgs84_lat":"34.31748477384633","address":"浐灞大道24号附近","adname":"未央区","wgs84_lon":"109.03191845786915","pname":"陕西省","cityname":"西安市","gcj02_lat":"34.316177","name":"太华金堤","gcj02_lon":"109.036948","type":"商务住宅;住宅区;住宅小区"}}, {"type":"Feature", "geometry":{"type":"Point","coordinates":[109.02841057661615,34.31709989735946]}, "properties":{"typecode":"120302","wgs84_lat":"34.31709989735946","address":"灞柳一路","adname":"未央区","wgs84_lon":"109.02841057661615","pname":"陕西省","cityname":"西安市","gcj02_lat":"34.315783","name":"参霸半岛","gcj02_lon":"109.033427","type":"商务住宅;住宅区;住宅小区"}}, {"type":"Feature", "geometry":{"type":"Point","coordinates":[109.03163350494319,34.305872763795406]}, "properties":{"typecode":"120302","wgs84_lat":"34.305872763795406","address":"浐河东路与金桥三路交汇处","adname":"灞桥区","wgs84_lon":"109.03163350494319","pname":"陕西省","cityname":"西安市","gcj02_lat":"34.304559","name":"桃源漫步天境(建设中)","gcj02_lon":"109.036661","type":"商务住宅;住宅区;住宅小区"}}, {"type":"Feature", "geometry":{"type":"Point","coordinates":[109.0248980131928,34.31778386592363]}, "properties":{"typecode":"120302","wgs84_lat":"34.31778386592363","address":"浐灞生态区","adname":"未央区","wgs84_lon":"109.0248980131928","pname":"陕西省","cityname":"西安市","gcj02_lat":"34.316458","name":"浐灞半岛小区(A5)","gcj02_lon":"109.029901","type":"商务住宅;住宅区;住宅小区"}}, {"type":"Feature", "geometry":{"type":"Point","coordinates":[109.01883107320678,34.306847556676175]}, "properties":{"typecode":"120302","wgs84_lat":"34.306847556676175","address":"十里铺北路1955号","adname":"灞桥区","wgs84_lon":"109.01883107320678","pname":"陕西省","cityname":"西安市","gcj02_lat":"34.305500","name":"河滨丽景苑","gcj02_lon":"109.023809","type":"商务住宅;住宅区;住宅小区"}}, {"type":"Feature", "geometry":{"type":"Point","coordinates":[109.03467750803992,34.30536848662296]}, "properties":{"typecode":"120302","wgs84_lat":"34.30536848662296","address":"金茂九路777号","adname":"灞桥区","wgs84_lon":"109.03467750803992","pname":"陕西省","cityname":"西安市","gcj02_lat":"34.304062","name":"领馆1号","gcj02_lon":"109.039716","type":"商务住宅;住宅区;住宅小区"}}, {"type":"Feature", "geometry":{"type":"Point","coordinates":[109.01708449882233,34.31489086179701]}, "properties":{"typecode":"120302","wgs84_lat":"34.31489086179701","address":"东湖路南100米","adname":"未央区","wgs84_lon":"109.01708449882233","pname":"陕西省","cityname":"西安市","gcj02_lat":"34.313542","name":"绿色花园","gcj02_lon":"109.022056","type":"商务住宅;住宅区;住宅小区"}}, {"type":"Feature", "geometry":{"type":"Point","coordinates":[109.01814554652427,34.310476857322705]}, "properties":{"typecode":"120302","wgs84_lat":"34.310476857322705","address":"广兴路与十里铺北路交叉口北100米","adname":"未央区","wgs84_lon":"109.01814554652427","pname":"陕西省","cityname":"西安市","gcj02_lat":"34.309129","name":"西酒小区","gcj02_lon":"109.023121","type":"商务住宅;住宅区;住宅小区"}}, {"type":"Feature", "geometry":{"type":"Point","coordinates":[109.02017646379998,34.30893784213092]}, "properties":{"typecode":"120302","wgs84_lat":"34.30893784213092","address":"广宁路333号","adname":"未央区","wgs84_lon":"109.02017646379998","pname":"陕西省","cityname":"西安市","gcj02_lat":"34.307595","name":"中海·尚城","gcj02_lon":"109.025160","type":"商务住宅;住宅区;住宅小区"}}, {"type":"Feature", "geometry":{"type":"Point","coordinates":[109.01783279109746,34.3108155903958]}, "properties":{"typecode":"120302","wgs84_lat":"34.3108155903958","address":"广兴路与十里铺北路交叉口北140米","adname":"未央区","wgs84_lon":"109.01783279109746","pname":"陕西省","cityname":"西安市","gcj02_lat":"34.309467","name":"新房村(西酒小区北)","gcj02_lon":"109.022807","type":"商务住宅;住宅区;住宅小区"}}, {"type":"Feature", "geometry":{"type":"Point","coordinates":[109.02608837098886,34.31809953928155]}, "properties":{"typecode":"120302","wgs84_lat":"34.31809953928155","address":"灞柳一路与金茂一路交叉口西南200米","adname":"未央区","wgs84_lon":"109.02608837098886","pname":"陕西省","cityname":"西安市","gcj02_lat":"34.316777","name":"中新浐灞半岛A6新泽美域","gcj02_lon":"109.031096","type":"商务住宅;住宅区;住宅小区"}}, {"type":"Feature", "geometry":{"type":"Point","coordinates":[109.02513752456716,34.30095982191125]}, "properties":{"typecode":"120302","wgs84_lat":"34.30095982191125","address":"听水花园9号楼2单元102室","adname":"灞桥区","wgs84_lon":"109.02513752456716","pname":"陕西省","cityname":"西安市","gcj02_lat":"34.299627","name":"听水花园","gcj02_lon":"109.030140","type":"商务住宅;住宅区;住宅小区"}}, {"type":"Feature", "geometry":{"type":"Point","coordinates":[109.02056367005913,34.300042729476836]}, "properties":{"typecode":"120302","wgs84_lat":"34.300042729476836","address":"北酒十路88号","adname":"灞桥区","wgs84_lon":"109.02056367005913","pname":"陕西省","cityname":"西安市","gcj02_lat":"34.298697","name":"华清园","gcj02_lon":"109.025548","type":"商务住宅;住宅区;住宅小区"}}, {"type":"Feature", "geometry":{"type":"Point","coordinates":[109.01868399112857,34.30308465154815]}, "properties":{"typecode":"120302","wgs84_lat":"34.30308465154815","address":"十里铺浐河开发区酒十路","adname":"灞桥区","wgs84_lon":"109.01868399112857","pname":"陕西省","cityname":"西安市","gcj02_lat":"34.301735","name":"金裕青青家园","gcj02_lon":"109.023661","type":"商务住宅;住宅区;住宅小区"}}, {"type":"Feature", "geometry":{"type":"Point","coordinates":[109.03192496268572,34.29972576293712]}, "properties":{"typecode":"120302","wgs84_lat":"34.29972576293712","address":"浐河东路与金桃路交叉口东南160米","adname":"灞桥区","wgs84_lon":"109.03192496268572","pname":"陕西省","cityname":"西安市","gcj02_lat":"34.298410","name":"龙湖新壹城","gcj02_lon":"109.036953","type":"商务住宅;住宅区;住宅小区"}}, {"type":"Feature", "geometry":{"type":"Point","coordinates":[109.02126458643035,34.3033023405429]}, "properties":{"typecode":"120302","wgs84_lat":"34.3033023405429","address":"米秦北路附近","adname":"灞桥区","wgs84_lon":"109.02126458643035","pname":"陕西省","cityname":"西安市","gcj02_lat":"34.301960","name":"美湖小区","gcj02_lon":"109.026252","type":"商务住宅;住宅区;住宅小区"}}, {"type":"Feature", "geometry":{"type":"Point","coordinates":[109.02729375092491,34.294690846158964]}, "properties":{"typecode":"120302","wgs84_lat":"34.294690846158964","address":"浐灞新区浐河西路天睦城","adname":"灞桥区","wgs84_lon":"109.02729375092491","pname":"陕西省","cityname":"西安市","gcj02_lat":"34.293361","name":"天睦城·澜岸小区","gcj02_lon":"109.032304","type":"商务住宅;住宅区;住宅小区"}}, {"type":"Feature", "geometry":{"type":"Point","coordinates":[109.02259288563286,34.29653266481252]}, "properties":{"typecode":"120302","wgs84_lat":"34.29653266481252","address":"十里铺街道米秦南路756号","adname":"灞桥区","wgs84_lon":"109.02259288563286","pname":"陕西省","cityname":"西安市","gcj02_lat":"34.295191","name":"西铁万寿温泉新区","gcj02_lon":"109.027585","type":"商务住宅;住宅区;住宅小区"}}, {"type":"Feature", "geometry":{"type":"Point","coordinates":[109.0331640713598,34.29241187707286]}, "properties":{"typecode":"120302","wgs84_lat":"34.29241187707286","address":"浐河东路与东城大道交叉口","adname":"灞桥区","wgs84_lon":"109.0331640713598","pname":"陕西省","cityname":"西安市","gcj02_lat":"34.291096","name":"御锦城15期","gcj02_lon":"109.038196","type":"商务住宅;住宅区;住宅小区"}}, {"type":"Feature", "geometry":{"type":"Point","coordinates":[109.02047419865514,34.298058850842736]}, "properties":{"typecode":"120302","wgs84_lat":"34.298058850842736","address":"米秦路2号","adname":"灞桥区","wgs84_lon":"109.02047419865514","pname":"陕西省","cityname":"西安市","gcj02_lat":"34.296712","name":"长力小区","gcj02_lon":"109.025458","type":"商务住宅;住宅区;住宅小区"}}, {"type":"Feature", "geometry":{"type":"Point","coordinates":[109.03793803256974,34.29411072350769]}, "properties":{"typecode":"120302","wgs84_lat":"34.29411072350769","address":"官厅立交与西安高架快速干道辅路交叉口西180米","adname":"灞桥区","wgs84_lon":"109.03793803256974","pname":"陕西省","cityname":"西安市","gcj02_lat":"34.292807","name":"阎家滩","gcj02_lon":"109.042987","type":"商务住宅;住宅区;住宅小区"}}, {"type":"Feature", "geometry":{"type":"Point","coordinates":[109.02424094009513,34.30190281795584]}, "properties":{"typecode":"120302","wgs84_lat":"34.30190281795584","address":"十里铺","adname":"灞桥区","wgs84_lon":"109.02424094009513","pname":"陕西省","cityname":"西安市","gcj02_lat":"34.300568","name":"李家堡社区","gcj02_lon":"109.029240","type":"商务住宅;住宅区;住宅小区"}}, {"type":"Feature", "geometry":{"type":"Point","coordinates":[109.0256212354433,34.29410952792277]}, "properties":{"typecode":"120302","wgs84_lat":"34.29410952792277","address":"华清东路与浐河西路交汇处西北角(浐河以西)","adname":"灞桥区","wgs84_lon":"109.0256212354433","pname":"陕西省","cityname":"西安市","gcj02_lat":"34.292775","name":"浐灞天睦城","gcj02_lon":"109.030625","type":"商务住宅;住宅区;住宅小区"}}, {"type":"Feature", "geometry":{"type":"Point","coordinates":[109.02344117956437,34.300718510314574]}, "properties":{"typecode":"120302","wgs84_lat":"34.300718510314574","address":"米秦北路4号","adname":"灞桥区","wgs84_lon":"109.02344117956437","pname":"陕西省","cityname":"西安市","gcj02_lat":"34.299381","name":"广馨苑小区","gcj02_lon":"109.028437","type":"商务住宅;住宅区;住宅小区"}}, {"type":"Feature", "geometry":{"type":"Point","coordinates":[109.02605005041796,34.30025569654719]}, "properties":{"typecode":"120302","wgs84_lat":"34.30025569654719","address":"浐河西路与米秦北路交汇处","adname":"灞桥区","wgs84_lon":"109.02605005041796","pname":"陕西省","cityname":"西安市","gcj02_lat":"34.298925","name":"观澜天下","gcj02_lon":"109.031056","type":"商务住宅;住宅区;住宅小区"}}, {"type":"Feature", "geometry":{"type":"Point","coordinates":[109.03380680276157,34.291775573757356]}, "properties":{"typecode":"120302","wgs84_lat":"34.291775573757356","address":"浐河东路","adname":"灞桥区","wgs84_lon":"109.03380680276157","pname":"陕西省","cityname":"西安市","gcj02_lat":"34.290461","name":"御锦城15期悦珑湾(建设中)","gcj02_lon":"109.038841","type":"商务住宅;住宅区;住宅小区"}}, {"type":"Feature", "geometry":{"type":"Point","coordinates":[109.02036370964032,34.29726950452126]}, "properties":{"typecode":"120302","wgs84_lat":"34.29726950452126","address":"米秦南路5号","adname":"灞桥区","wgs84_lon":"109.02036370964032","pname":"陕西省","cityname":"西安市","gcj02_lat":"34.295922","name":"枫禾苑温泉小区","gcj02_lon":"109.025347","type":"商务住宅;住宅区;住宅小区"}}, {"type":"Feature", "geometry":{"type":"Point","coordinates":[109.02234777460981,34.2974889188849]}, "properties":{"typecode":"120302","wgs84_lat":"34.2974889188849","address":"米秦南路与十里铺北路交叉口东320米","adname":"灞桥区","wgs84_lon":"109.02234777460981","pname":"陕西省","cityname":"西安市","gcj02_lat":"34.296147","name":"枫禾新苑","gcj02_lon":"109.027339","type":"商务住宅;住宅区;住宅小区"}}, {"type":"Feature", "geometry":{"type":"Point","coordinates":[109.0216059593057,34.29472216856937]}, "properties":{"typecode":"120302","wgs84_lat":"34.29472216856937","address":"西安高架快速干道东20米","adname":"灞桥区","wgs84_lon":"109.0216059593057","pname":"陕西省","cityname":"西安市","gcj02_lat":"34.293377","name":"米家崖住宅小区","gcj02_lon":"109.026594","type":"商务住宅;住宅区;住宅小区"}}, {"type":"Feature", "geometry":{"type":"Point","coordinates":[109.02387556525862,34.29964180540678]}, "properties":{"typecode":"120302","wgs84_lat":"34.29964180540678","address":"浐河西路与通塬路交叉口西440米","adname":"灞桥区","wgs84_lon":"109.02387556525862","pname":"陕西省","cityname":"西安市","gcj02_lat":"34.298305","name":"蒋家湾社区","gcj02_lon":"109.028873","type":"商务住宅;住宅区;住宅小区"}}, {"type":"Feature", "geometry":{"type":"Point","coordinates":[109.0171982662432,34.30045702777965]}, "properties":{"typecode":"120302","wgs84_lat":"34.30045702777965","address":"十里铺街道酒十路","adname":"灞桥区","wgs84_lon":"109.0171982662432","pname":"陕西省","cityname":"西安市","gcj02_lat":"34.299102","name":"紫郡观澜","gcj02_lon":"109.022169","type":"商务住宅;住宅区;住宅小区"}}, {"type":"Feature", "geometry":{"type":"Point","coordinates":[109.03221841378193,34.30522559040862]}, "properties":{"typecode":"120302","wgs84_lat":"34.30522559040862","address":"浐河东路与环岛路交汇处附近","adname":"灞桥区","wgs84_lon":"109.03221841378193","pname":"陕西省","cityname":"西安市","gcj02_lat":"34.303913","name":"桃源漫步","gcj02_lon":"109.037248","type":"商务住宅;住宅区;住宅小区"}}, {"type":"Feature", "geometry":{"type":"Point","coordinates":[109.01736417654081,34.30527641523422]}, "properties":{"typecode":"120302","wgs84_lat":"34.30527641523422","address":"十里铺北路与玄武东路交叉口西南80米","adname":"灞桥区","wgs84_lon":"109.01736417654081","pname":"陕西省","cityname":"西安市","gcj02_lat":"34.303924","name":"清雅贤居","gcj02_lon":"109.022336","type":"商务住宅;住宅区;住宅小区"}}, {"type":"Feature", "geometry":{"type":"Point","coordinates":[109.0186141478939,34.292862330349195]}, "properties":{"typecode":"120302","wgs84_lat":"34.292862330349195","address":"十里铺北街318号","adname":"灞桥区","wgs84_lon":"109.0186141478939","pname":"陕西省","cityname":"西安市","gcj02_lat":"34.291508","name":"陕西省木材公司家属院","gcj02_lon":"109.023590","type":"商务住宅;住宅区;住宅小区"}}, {"type":"Feature", "geometry":{"type":"Point","coordinates":[109.02200646558398,34.30523942891312]}, "properties":{"typecode":"120302","wgs84_lat":"34.30523942891312","address":"浐河西路西段3501号","adname":"灞桥区","wgs84_lon":"109.02200646558398","pname":"陕西省","cityname":"西安市","gcj02_lat":"34.303900","name":"阳光100阿尔勒","gcj02_lon":"109.026997","type":"商务住宅;住宅区;住宅小区"}}, {"type":"Feature", "geometry":{"type":"Point","coordinates":[109.0190334036781,34.29339391849952]}, "properties":{"typecode":"120302","wgs84_lat":"34.29339391849952","address":"北酒十路56号","adname":"灞桥区","wgs84_lon":"109.0190334036781","pname":"陕西省","cityname":"西安市","gcj02_lat":"34.292041","name":"十里铺街道办事处家属院北院","gcj02_lon":"109.024011","type":"商务住宅;住宅区;住宅小区"}}, {"type":"Feature", "geometry":{"type":"Point","coordinates":[109.04033752160254,34.29819447853373]}, "properties":{"typecode":"120302","wgs84_lat":"34.29819447853373","address":"通塬路与金茂六路交叉口西南200米","adname":"灞桥区","wgs84_lon":"109.04033752160254","pname":"陕西省","cityname":"西安市","gcj02_lat":"34.296898","name":"西铁浐灞生态苑住宅小区","gcj02_lon":"109.045395","type":"商务住宅;住宅区;住宅小区"}}, {"type":"Feature", "geometry":{"type":"Point","coordinates":[109.03923178857009,34.291985673928]}, "properties":{"typecode":"120302","wgs84_lat":"34.291985673928","address":"御景四路与东三环交汇处西","adname":"灞桥区","wgs84_lon":"109.03923178857009","pname":"陕西省","cityname":"西安市","gcj02_lat":"34.290684","name":"御锦城6期","gcj02_lon":"109.044285","type":"商务住宅;住宅区;住宅小区"}}, {"type":"Feature", "geometry":{"type":"Point","coordinates":[109.04153497630895,34.29311603789724]}, "properties":{"typecode":"120302","wgs84_lat":"34.29311603789724","address":"浐灞生态区御城路1519号","adname":"灞桥区","wgs84_lon":"109.04153497630895","pname":"陕西省","cityname":"西安市","gcj02_lat":"34.291820","name":"御锦城12期","gcj02_lon":"109.046596","type":"商务住宅;住宅区;住宅小区"}}, {"type":"Feature", "geometry":{"type":"Point","coordinates":[109.04050903585839,34.297169544454356]}, "properties":{"typecode":"120302","wgs84_lat":"34.297169544454356","address":"通塬路与金茂六路交叉口南300米","adname":"灞桥区","wgs84_lon":"109.04050903585839","pname":"陕西省","cityname":"西安市","gcj02_lat":"34.295873","name":"浐灞区居民服务区安置小区","gcj02_lon":"109.045567","type":"商务住宅;住宅区;住宅小区"}}, {"type":"Feature", "geometry":{"type":"Point","coordinates":[109.0266249090656,34.28775459664602]}, "properties":{"typecode":"120302","wgs84_lat":"34.28775459664602","address":"尚勤路294号","adname":"灞桥区","wgs84_lon":"109.0266249090656","pname":"陕西省","cityname":"西安市","gcj02_lat":"34.286420","name":"东方明珠","gcj02_lon":"109.031632","type":"商务住宅;住宅区;住宅小区"}}, {"type":"Feature", "geometry":{"type":"Point","coordinates":[109.02822482024482,34.287536492058436]}, "properties":{"typecode":"120302","wgs84_lat":"34.287536492058436","address":"十里铺新桥北路北口东方明珠东100米","adname":"灞桥区","wgs84_lon":"109.02822482024482","pname":"陕西省","cityname":"西安市","gcj02_lat":"34.286206","name":"河滨花园","gcj02_lon":"109.033238","type":"商务住宅;住宅区;住宅小区"}}, {"type":"Feature", "geometry":{"type":"Point","coordinates":[109.03547439438894,34.285396266516486]}, "properties":{"typecode":"120302","wgs84_lat":"34.285396266516486","address":"御浦路与御锦三路交叉口西南160米","adname":"灞桥区","wgs84_lon":"109.03547439438894","pname":"陕西省","cityname":"西安市","gcj02_lat":"34.284083","name":"御锦城18期","gcj02_lon":"109.040514","type":"商务住宅;住宅区;住宅小区"}}, {"type":"Feature", "geometry":{"type":"Point","coordinates":[109.02722257584968,34.28824880979045]}, "properties":{"typecode":"120302","wgs84_lat":"34.28824880979045","address":"十里铺街道浐河西路东方大市场","adname":"灞桥区","wgs84_lon":"109.02722257584968","pname":"陕西省","cityname":"西安市","gcj02_lat":"34.286916","name":"一力小区","gcj02_lon":"109.032232","type":"商务住宅;住宅区;住宅小区"}}, {"type":"Feature", "geometry":{"type":"Point","coordinates":[109.03691657068096,34.28255604578617]},